Restaurant ID,Restaurant Name,Country Code,City,Address,Locality,Locality Verbose,Longitude,Latitude,Cuisines,Average Cost for two,Currency,Has Table booking,Has Online delivery,Is delivering now,Switch to order menu,Price range,Aggregate rating,Rating color,Rating text,Votes,Country,Cost Category,Budget Range,Primary Cuisine,Cuisine List,Normalized Rating,Normalized Votes,Popularity Score
6317637,le petit souffle,162,Makati City,"Third Floor, Century City Mall, Kalayaan Avenue, Poblacion, Makati City","century city mall, poblacion, makati city","century city mall, poblacion, makati city, makati city",121.027535,14.565443,"french, japanese, desserts",1100,Botswana Pula(P),True,False,False,No,3,4.8,Dark Green,Excellent,314,Phillipines,high,4,french,"['french', 'japanese', 'desserts']",4.8,0.02871776111212731,0.6806153283336381
6304287,izakaya kikufuji,162,Makati City,"Little Tokyo, 2277 Chino Roces Avenue, Legaspi Village, Makati City","little tokyo, legaspi village, makati city","little tokyo, legaspi village, makati city, makati city",121.014101,14.553708,japanese,1200,Botswana Pula(P),True,False,False,No,3,4.5,Dark Green,Excellent,591,Phillipines,high,4,japanese,['japanese'],4.5,0.054051582220596306,0.6462154746661789
6300002,heat - edsa shangri-la,162,Mandaluyong City,"Edsa Shangri-La, 1 Garden Way, Ortigas, Mandaluyong City","edsa shangri-la, ortigas, mandaluyong city","edsa shangri-la, ortigas, mandaluyong city, mandaluyong city",121.056831,14.581404,"seafood, asian, filipino, indian",4000,Botswana Pula(P),True,False,False,No,4,4.4,Green,Very Good,270,Phillipines,high,4,seafood,"['seafood', 'asian', 'filipino', 'indian']",4.4,0.02469361624291202,0.6234080848728736
6318506,ooma,162,Mandaluyong City,"Third Floor, Mega Fashion Hall, SM Megamall, Ortigas, Mandaluyong City","sm megamall, ortigas, mandaluyong city","sm megamall, ortigas, mandaluyong city, mandaluyong city",121.056475,14.585318,"japanese, sushi",1500,Botswana Pula(P),False,False,False,No,4,4.9,Dark Green,Excellent,365,Phillipines,high,4,japanese,"['japanese', 'sushi']",4.9,0.03338211084689958,0.69601463325407
6314302,sambo kojin,162,Mandaluyong City,"Third Floor, Mega Atrium, SM Megamall, Ortigas, Mandaluyong City","sm megamall, ortigas, mandaluyong city","sm megamall, ortigas, mandaluyong city, mandaluyong city",121.057508,14.58445,"japanese, korean",1500,Botswana Pula(P),True,False,False,No,4,4.8,Dark Green,Excellent,229,Phillipines,high,4,japanese,"['japanese', 'korean']",4.8,0.02094384488750686,0.678283153466252
18189371,din tai fung,162,Mandaluyong City,"Ground Floor, Mega Fashion Hall, SM Megamall, Ortigas, Mandaluyong City","sm megamall, ortigas, mandaluyong city","sm megamall, ortigas, mandaluyong city, mandaluyong city",121.056314,14.583764,chinese,1000,Botswana Pula(P),False,False,False,No,3,4.4,Green,Very Good,336,Phillipines,high,4,chinese,['chinese'],4.4,0.030729833546734954,0.6252189500640205
6300781,buffet 101,162,Pasay City,"Building K, SM By The Bay, Sunset Boulevard, Mall of Asia Complex (MOA), Pasay City","sm by the bay, mall of asia complex, pasay city","sm by the bay, mall of asia complex, pasay city, pasay city",120.9796667,14.53133333,"asian, european",2000,Botswana Pula(P),True,False,False,No,4,4.0,Green,Very Good,520,Phillipines,high,4,asian,"['asian', 'european']",4.0,0.04755807572708981,0.5742674227181269
6301290,vikings,162,Pasay City,"Building B, By The Bay, Seaside Boulevard, Mall of Asia Complex (MOA), Pasay City","sm by the bay, mall of asia complex, pasay city","sm by the bay, mall of asia complex, pasay city, pasay city",120.9793333,14.54,"seafood, filipino, asian, european",2000,Botswana Pula(P),True,False,False,No,4,4.2,Green,Very Good,677,Phillipines,high,4,seafood,"['seafood', 'filipino', 'asian', 'european']",4.2,0.06191695628315347,0.606575086884946
6300010,spiral - sofitel philippine plaza manila,162,Pasay City,"Plaza Level, Sofitel Philippine Plaza Manila, CCP Complex, Pasay City","sofitel philippine plaza manila, pasay city","sofitel philippine plaza manila, pasay city, pasay city",120.98009,14.55299,"european, asian, indian",6000,Botswana Pula(P),True,False,False,No,4,4.9,Dark Green,Excellent,621,Phillipines,high,4,european,"['european', 'asian', 'indian']",4.9,0.05679531735869764,0.7030385952076094
6314987,locavore,162,Pasig City,"Brixton Technology Center, 10 Brixton Street, Kapitolyo, Pasig City",kapitolyo,"kapitolyo, pasig city",121.056532,14.572041,filipino,1100,Botswana Pula(P),True,False,False,No,3,4.8,Dark Green,Excellent,532,Phillipines,high,4,filipino,['filipino'],4.8,0.04865556978233035,0.686596670934699
6309903,silantro fil-mex,162,Pasig City,"75 East Capitol Drive, Kapitolyo, Pasig City",kapitolyo,"kapitolyo, pasig city",121.057916,14.567689,"filipino, mexican",800,Botswana Pula(P),False,False,False,No,3,4.9,Dark Green,Excellent,1070,Phillipines,high,4,filipino,"['filipino', 'mexican']",4.9,0.09785988659228095,0.7153579659776843
6309455,mad mark's creamery & good eats,162,Pasig City,"23 East Capitol Drive, Kapitolyo, Pasig City",kapitolyo,"kapitolyo, pasig city",121.06082,14.570849,"american, ice cream, desserts",900,Botswana Pula(P),True,False,False,No,3,4.2,Green,Very Good,488,Phillipines,high,4,american,"['american', 'ice cream', 'desserts']",4.2,0.04463142491311505,0.6013894274739345
6318433,silantro fil-mex,162,Quezon City,"Second Floor, UP Town Center, Katipunan Avenue, Diliman, Quezon City","up town center, diliman, quezon city","up town center, diliman, quezon city, quezon city",121.075419,14.649503,"filipino, mexican",800,Botswana Pula(P),False,False,False,No,3,4.8,Dark Green,Excellent,294,Phillipines,high,4,filipino,"['filipino', 'mexican']",4.8,0.026888604353393086,0.6800665813060178
6310470,guevarra's,162,San Juan City,"387 P. Guevarra Corner Argonne Street, Addition Hills, San Juan City",addition hills,"addition hills, san juan city",121.0335917,14.59345,filipino,1000,Botswana Pula(P),True,False,False,No,3,4.2,Green,Very Good,458,Phillipines,high,4,filipino,['filipino'],4.2,0.04188768977501372,0.6005663069325041
6314605,sodam korean restaurant,162,San Juan City,"17 J. Abad Santos Drive, Little Baguio, San Juan City",little baguio,"little baguio, san juan city",121.03811,14.59889,korean,700,Botswana Pula(P),False,False,False,No,3,4.3,Green,Very Good,223,Phillipines,medium,3,korean,['korean'],4.3,0.020395097859886593,0.608118529357966
18185059,cafe arabelle,162,Santa Rosa,"Ayala Mall, Solenad, Nuvali, Santa Rosa - Tagaytay Road, Don Jose, Santa Rosa","nuvali, don jose, santa rosa","nuvali, don jose, santa rosa, santa rosa",121.05704,14.237082,"cafe, american, italian, filipino",800,Botswana Pula(P),False,False,False,No,3,3.6,Yellow,Good,29,Phillipines,high,4,cafe,"['cafe', 'american', 'italian', 'filipino']",3.6,0.0026522773001646243,0.5047956831900494
18182702,nonna's pasta & pizzeria,162,Santa Rosa,"Ground Floor, Building G, Solenad 3, Nuvali, Don Jose, Santa Rosa","solenad 3, don jose, santa rosa","solenad 3, don jose, santa rosa, santa rosa",121.0565874,14.23767897,"italian, pizza",850,Botswana Pula(P),False,False,False,No,3,4.0,Green,Very Good,72,Phillipines,high,4,italian,"['italian', 'pizza']",4.0,0.006584964331443205,0.5619754892994329
6318213,balay dako,162,Tagaytay City,"Aguinaldo Highway, Tagaytay City",tagaytay city,"tagaytay city, tagaytay city",120.951589,14.101834,filipino,1200,Botswana Pula(P),True,False,False,No,3,4.5,Dark Green,Excellent,211,Phillipines,high,4,filipino,['filipino'],4.5,0.019297603804646058,0.6357892811413938
18255654,hobing korean dessert cafe,162,Taguig City,"Third Floor, BGC Stopover Pavillion, Rizal Drive Corner 31st Street, Bonifacio Global City, Taguig City","bgc stopover pavillion, bonifacio global city","bgc stopover pavillion, bonifacio global city, taguig city",121.045878,14.55436,"cafe, korean, desserts",600,Botswana Pula(P),False,False,False,No,2,4.5,Dark Green,Excellent,118,Phillipines,medium,3,cafe,"['cafe', 'korean', 'desserts']",4.5,0.010792024876531919,0.6332376074629595
6308205,wildflour cafe + bakery,162,Taguig City,"Ground Floor, Netlima Building, 4th Avenue Corner 26th Street, Bonifacio Global City, Taguig City",bonifacio global city,"bonifacio global city, taguig city",121.04622,14.549337,"cafe, bakery, american, italian",1500,Botswana Pula(P),True,False,False,No,4,4.4,Green,Very Good,392,Phillipines,high,4,cafe,"['cafe', 'bakery', 'american', 'italian']",4.4,0.03585147247119078,0.6267554417413572
6315438,niu by vikings,162,Taguig City,"Sixth Floor, SM Aura Premier, C5 Road Corner 26th Street, Bonifacio Global City, Taguig City","sm aura premier, bonifacio global city, taguig city","sm aura premier, bonifacio global city, taguig city, taguig city",121.053725,14.545858,"seafood, american, mediterranean, japanese",3000,Botswana Pula(P),True,False,False,No,4,4.7,Dark Green,Excellent,535,Phillipines,high,4,seafood,"['seafood', 'american', 'mediterranean', 'japanese']",4.7,0.04892994329614048,0.6726789829888422
6310406,the food hall by todd english,162,Taguig City,"Fifth Floor, SM Aura Premier, C5 Corner 26th Street, Bonifacio Global City, Taguig City","sm aura premier, bonifacio global city, taguig city","sm aura premier, bonifacio global city, taguig city, taguig city",121.0534998,14.54565535,"american, asian, italian, seafood",1800,Botswana Pula(P),True,False,False,No,4,4.5,Dark Green,Excellent,618,Phillipines,high,4,american,"['american', 'asian', 'italian', 'seafood']",4.5,0.056520943844887504,0.6469562831534662
6600681,chez michou,30,Brasí_lia,"SCLN, 208, Bloco A, Loja 30, Asa Norte, Brasí_lia",asa norte,"asa norte, brasí_lia",-47.88178889,-15.76414167,"fast food, french",55,Brazilian Real(R$),False,False,False,No,2,3.0,Orange,Average,6,Brazil,low,1,fast food,"['fast food', 'french']",3.0,0.000548747027620267,0.42016462410828603
6601005,cafí© daniel briand,30,Brasí_lia,"SCLN 104, Bloco A, Loja 26, Asa Norte, Brasí_lia",asa norte,"asa norte, brasí_lia",-47.88266667,-15.7775,cafe,30,Brazilian Real(R$),False,False,False,No,1,3.8,Yellow,Good,9,Brazil,low,1,cafe,['cafe'],3.8,0.0008231205414304006,0.532246936162429
6600292,casa do biscoito mineiro,30,Brasí_lia,"SCLN 210, Bloco D, Loja 36/48, Asa Norte, Brasí_lia",asa norte,"asa norte, brasí_lia",-47.88213611,-15.75747222,bakery,45,Brazilian Real(R$),False,False,False,No,2,3.7,Yellow,Good,11,Brazil,low,1,bakery,['bakery'],3.7,0.001006036217303823,0.5183018108651911
6600441,maori,30,Brasí_lia,"CLN 110, Bloco D, Loja 28, Asa Norte, Brasí_lia",asa norte,"asa norte, brasí_lia",-47.88816667,-15.75883333,brazilian,60,Brazilian Real(R$),False,False,False,No,3,3.8,Yellow,Good,11,Brazil,low,1,brazilian,['brazilian'],3.8,0.001006036217303823,0.532301810865191
6600970,pizza íæ bessa,30,Brasí_lia,"SCS 214, Bloco C, Loja 40, Asa Sul, Brasí_lia",asa sul,"asa sul, brasí_lia",-47.91566667,-15.83116667,pizza,50,Brazilian Real(R$),False,False,False,No,2,3.2,Orange,Average,11,Brazil,low,1,pizza,['pizza'],3.2,0.001006036217303823,0.4483018108651911
6600379,sushi loko,30,Brasí_lia,"SCS 213, Bloco C, Loja 35, Asa Sul, Brasí_lia",asa sul,"asa sul, brasí_lia",-47.91566667,-15.831,japanese,80,Brazilian Real(R$),False,False,False,No,3,3.1,Orange,Average,10,Brazil,low,1,japanese,['japanese'],3.1,0.0009145783793671117,0.43427437351381015
6600214,beirute,30,Brasí_lia,"CLS 109, Bloco A, Loja 2/6, Asa Sul, Brasí_lia",asa sul,"asa sul, brasí_lia",-47.9075,-15.82,arabian,90,Brazilian Real(R$),False,False,False,No,3,3.7,Yellow,Good,8,Brazil,low,1,arabian,['arabian'],3.7,0.0007316627034936894,0.5182194988110481
6601218,new koto,30,Brasí_lia,"SCS 212, Bloco B, Loja 26, Asa Sul, Brasí_lia",asa sul,"asa sul, brasí_lia",-47.91016667,-15.82733333,japanese,200,Brazilian Real(R$),False,False,False,No,4,3.7,Yellow,Good,5,Brazil,low,1,japanese,['japanese'],3.7,0.00045728918968355586,0.5181371867569051
6600060,sandubas cafí©,30,Brasí_lia,"Edifí_cio Josí© Severo, SCS 6, Bloco A, Loja 99, Asa Sul, Brasí_lia",asa sul,"asa sul, brasí_lia",-47.89016667,-15.797,"brazilian, cafe",30,Brazilian Real(R$),False,False,False,No,1,0.0,White,Not rated,2,Brazil,low,1,brazilian,"['brazilian', 'cafe']",0.0,0.00018291567587342235,5.48747027620267e-05
6600083,villa tevere,30,Brasí_lia,"CLS 115, Bloco A, Loja 2, Asa Sul, Brasí_lia",asa sul,"asa sul, brasí_lia",-47.92366667,-15.83133333,italian,150,Brazilian Real(R$),False,False,False,No,4,4.1,Green,Very Good,12,Brazil,low,1,italian,['italian'],4.1,0.001097494055240534,0.5743292482165722
6601515,rovereto,30,Brasí_lia,"Rua 13 Norte, Lote 4, íguas Claras, Brasí_lia",íguas claras,"íguas claras, brasí_lia",-48.019,-15.83716667,pizza,100,Brazilian Real(R$),False,False,False,No,4,3.1,Orange,Average,9,Brazil,low,1,pizza,['pizza'],3.1,0.0008231205414304006,0.4342469361624291
6601361,buena carne,30,Brasí_lia,"Avenida Araucíçrias, 1325, Loja 19, íguas Claras, Brasí_lia",íguas claras,"íguas claras, brasí_lia",-48.01909167,-15.839775,"bar food, brazilian",60,Brazilian Real(R$),False,False,False,No,3,3.6,Yellow,Good,9,Brazil,low,1,bar food,"['bar food', 'brazilian']",3.6,0.0008231205414304006,0.5042469361624291
6601602,taco pep,30,Brasí_lia,"Vila Malls, Avenida das Castanheiras, Lote 1060, íguas Claras, Brasí_lia",íguas claras,"íguas claras, brasí_lia",-48.01666667,-15.83483333,"mexican, grill",100,Brazilian Real(R$),False,False,False,No,4,4.3,Green,Very Good,29,Brazil,low,1,mexican,"['mexican', 'grill']",4.3,0.0026522773001646243,0.6027956831900494
6601589,coco bambu,30,Brasí_lia,"Brasí_lia Shopping - Piso 2, SCN 5, Bloco A, Asa Norte, Brasí_lia","brasí_lia shopping, asa norte","brasí_lia shopping, asa norte, brasí_lia",-47.889,-15.7865,international,230,Brazilian Real(R$),False,False,False,No,4,4.2,Green,Very Good,17,Brazil,low,1,international,['international'],4.2,0.00155478324492409,0.5884664349734772
6601862,taypíç,30,Brasí_lia,"Fashion Park, Shis Ql 17, Bloco G, Loja 208, Lago Sul, Brasí_lia",lago sul,"lago sul, brasí_lia",-47.872359,-15.860621,"peruvian, latin american",100,Brazilian Real(R$),False,False,False,No,4,3.6,Yellow,Good,5,Brazil,low,1,peruvian,"['peruvian', 'latin american']",3.6,0.00045728918968355586,0.5041371867569051
6601595,outback steakhouse,30,Brasí_lia,"ParkShopping - Piso 2, SAI/SO, írea 6580, Guaríç I, Brasí_lia","parkshopping, guaríç i","parkshopping, guaríç i, brasí_lia",-47.95628333,-15.83451389,"american, grill",150,Brazilian Real(R$),False,False,False,No,4,4.0,Green,Very Good,10,Brazil,low,1,american,"['american', 'grill']",4.0,0.0009145783793671117,0.56027437351381
6601158,manzuíç,30,Brasí_lia,"Pontí£o Lago Sul, SHIS 10, Lote 9, Lago Sul, Brasí_lia","pontí£o lago sul, lago sul","pontí£o lago sul, lago sul, brasí_lia",-47.87283333,-15.82566667,seafood,240,Brazilian Real(R$),False,False,False,No,4,3.2,Orange,Average,6,Brazil,low,1,seafood,['seafood'],3.2,0.000548747027620267,0.44816462410828606
6600427,coco bambu,30,Brasí_lia,"SCES, Trecho 2, Conjunto 13/36, Setor de Clubes Esportivos Sul, Brasí_lia",setor de clubes esportivos sul,"setor de clubes esportivos sul, brasí_lia",-47.8685,-15.819,international,230,Brazilian Real(R$),False,False,False,No,4,4.9,Dark Green,Excellent,30,Brazil,low,1,international,['international'],4.9,0.0027437351381013352,0.6868231205414305
6600116,gero,30,Brasí_lia,"Shopping Iguatemi - piso 1, SHIN CA 4, Lote A, Lago Norte, Brasí_lia","shopping iguatemi, lago norte","shopping iguatemi, lago norte, brasí_lia",-47.885812,-15.720118,italian,350,Brazilian Real(R$),False,False,False,No,4,3.3,Orange,Average,8,Brazil,medium,2,italian,['italian'],3.3,0.0007316627034936894,0.462219498811048
6601457,brazilian american burgers,30,Brasí_lia,"CLSN 301, Bloco C, Loja 86, Sudoeste, Brasí_lia",sudoeste,"sudoeste, brasí_lia",-47.92102778,-15.79753056,"american, burger",50,Brazilian Real(R$),False,False,False,No,2,3.6,Yellow,Good,9,Brazil,low,1,american,"['american', 'burger']",3.6,0.0008231205414304006,0.5042469361624291
7303219,pesqueiro eco gourmet,30,Rio de Janeiro,"Praia da Barra da Tijuca, Avenida Lí_cio Costa, Ilha 25, Barra da Tijuca, Rio de Janeiro",barra da tijuca,"barra da tijuca, rio de janeiro",-43.377,-23.0115,"seafood, bar food, brazilian",140,Brazilian Real(R$),False,False,False,No,4,4.0,Green,Very Good,7,Brazil,low,1,seafood,"['seafood', 'bar food', 'brazilian']",4.0,0.0006402048655569782,0.560192061459667
7304307,confeitaria colombo,30,Rio de Janeiro,"Rua Goní_alves Dias, 32, Centro, Rio de Janeiro",centro,"centro, rio de janeiro",-43.178826,-22.905293,"desserts, cafe",100,Brazilian Real(R$),False,False,False,No,4,4.8,Dark Green,Excellent,29,Brazil,low,1,desserts,"['desserts', 'cafe']",4.8,0.0026522773001646243,0.6727956831900493
7301215,bibi,30,Rio de Janeiro,"Rua Santa Clara, 36, Copabana, Rio de Janeiro",copacabana,"copacabana, rio de janeiro",-43.18669167,-22.97207222,"juices, healthy food",60,Brazilian Real(R$),False,False,False,No,3,4.7,Dark Green,Excellent,24,Brazil,low,1,juices,"['juices', 'healthy food']",4.7,0.002194988110481068,0.6586584964331443
7300596,cervantes,30,Rio de Janeiro,"Avenida Prado Junior, 335 B, Copacabana, Rio de Janeiro",copacabana,"copacabana, rio de janeiro",-43.17583333,-22.96216667,"beverages, bar food, fast food",90,Brazilian Real(R$),False,False,False,No,3,4.5,Dark Green,Excellent,29,Brazil,low,1,beverages,"['beverages', 'bar food', 'fast food']",4.5,0.0026522773001646243,0.6307956831900494
7300612,amir,30,Rio de Janeiro,"Rua Ronald de Carvalho, 55, Copacabana, Rio de Janeiro",copacabana,"copacabana, rio de janeiro",-43.176,-22.96516667,lebanese,170,Brazilian Real(R$),False,False,False,No,4,4.2,Green,Very Good,11,Brazil,low,1,lebanese,['lebanese'],4.2,0.001006036217303823,0.5883018108651911
7300704,tt burger,30,Rio de Janeiro,"Galeria River, Rua Francisco Otaviano, 67, Copacabana, Rio de Janeiro","galeria river, copacabana","galeria river, copacabana, rio de janeiro",-43.191,-22.98683333,burger,60,Brazilian Real(R$),False,False,False,No,3,4.8,Dark Green,Excellent,19,Brazil,low,1,burger,['burger'],4.8,0.0017376989207975124,0.6725213096762391
7300955,braseiro da gíçvea,30,Rio de Janeiro,"Praí_a Santos Dumont, 116, Gíçvea, Rio de Janeiro",gíçvea,"gíçvea, rio de janeiro",-43.227042,-22.973507,"brazilian, bar food",100,Brazilian Real(R$),False,False,False,No,4,4.9,Dark Green,Excellent,40,Brazil,low,1,brazilian,"['brazilian', 'bar food']",4.9,0.003658313517468447,0.6870974940552406
7300521,balada mix,30,Rio de Janeiro,"Rua Aní_bal de Mendoní_a, 37, Ipanema, Rio de Janeiro",ipanema,"ipanema, rio de janeiro",-43.211425,-22.98520833,"brazilian, healthy food, juices, pizza",90,Brazilian Real(R$),False,False,False,No,3,4.6,Dark Green,Excellent,21,Brazil,low,1,brazilian,"['brazilian', 'healthy food', 'juices', 'pizza']",4.6,0.0019206145966709346,0.6445761843790012
7300515,garota de ipanema,30,Rio de Janeiro,"Rua Vinicius de Moraes, 49, Ipanema, Rio de Janeiro",ipanema,"ipanema, rio de janeiro",-43.203,-22.98533333,"brazilian, bar food",120,Brazilian Real(R$),False,False,False,No,4,4.9,Dark Green,Excellent,49,Brazil,low,1,brazilian,"['brazilian', 'bar food']",4.9,0.004481434058898848,0.6873444302176697
7300483,zazíç bistríç tropical,30,Rio de Janeiro,"Rua Joana Angí©lica, 40, Ipanema, Rio de Janeiro",ipanema,"ipanema, rio de janeiro",-43.20520833,-22.98531944,brazilian,170,Brazilian Real(R$),False,False,False,No,4,4.6,Dark Green,Excellent,21,Brazil,low,1,brazilian,['brazilian'],4.6,0.0019206145966709346,0.6445761843790012
7301064,filí© de ouro,30,Rio de Janeiro,"Rua Jardim Botí¢nico, 731, Jardim Botí¢nico, Lagoa, Rio de Janeiro",lagoa,"lagoa, rio de janeiro",-43.219563,-22.966647,brazilian,90,Brazilian Real(R$),False,False,False,No,3,4.3,Green,Very Good,14,Brazil,low,1,brazilian,['brazilian'],4.3,0.0012804097311139564,0.6023841229193342
7304312,d.o.c ristorante,30,Rio de Janeiro,"Le Monde, Bloco 3, Lojas A/B, Avenida das Amí©ricas, 3500, Barra da Tijuca, Rio de Janeiro","le monde, barra da tijuca","le monde, barra da tijuca, rio de janeiro",-43.34879167,-22.99991111,italian,150,Brazilian Real(R$),False,False,False,No,4,4.0,Green,Very Good,5,Brazil,low,1,italian,['italian'],4.0,0.00045728918968355586,0.560137186756905
7300004,sushi leblon,30,Rio de Janeiro,"Rua Dias Ferreira, 256, Leblon, Rio de Janeiro",leblon,"leblon, rio de janeiro",-43.227,-22.98416667,japanese,250,Brazilian Real(R$),False,False,False,No,4,4.6,Dark Green,Excellent,25,Brazil,low,1,japanese,['japanese'],4.6,0.0022864459484177794,0.6446859337845252
7300868,talho capixaba,30,Rio de Janeiro,"Avenida Ataulfo de Paiva, 1022, Lojas A e B, Leblon, Rio de Janeiro",leblon,"leblon, rio de janeiro",-43.22566667,-22.98516667,"bakery, sandwich, brazilian",120,Brazilian Real(R$),False,False,False,No,4,4.4,Green,Very Good,13,Brazil,low,1,bakery,"['bakery', 'sandwich', 'brazilian']",4.4,0.0011889518931772452,0.6163566855679532
7302637,leme light,30,Rio de Janeiro,"Rua Gustavo Sampaio, 798, Leme, Rio de Janeiro",leme,"leme, rio de janeiro",-43.17279167,-22.963925,brazilian,40,Brazilian Real(R$),False,False,False,No,2,4.2,Green,Very Good,7,Brazil,low,1,brazilian,['brazilian'],4.2,0.0006402048655569782,0.5881920614596671
7302140,shirley,30,Rio de Janeiro,"Rua Gustavo Sampaio, 610, Leme, Rio de Janeiro",leme,"leme, rio de janeiro",-43.17126389,-22.96337222,"brazilian, seafood",250,Brazilian Real(R$),False,False,False,No,4,4.2,Green,Very Good,8,Brazil,low,1,brazilian,"['brazilian', 'seafood']",4.2,0.0007316627034936894,0.5882194988110481
7305048,quiosque chopp brahma,30,Rio de Janeiro,"Madureira Shopping - Loja 289/290, Piso 2, Estrada do Portela, 222, Madureira, Rio de Janeiro, RJ",madureira,"madureira, rio de janeiro",-43.341164,-22.870413,"bar food, brazilian",70,Brazilian Real(R$),False,False,False,No,3,0.0,White,Not rated,1,Brazil,low,1,bar food,"['bar food', 'brazilian']",0.0,9.145783793671118e-05,2.743735138101335e-05
7302898,aprazí_vel,30,Rio de Janeiro,"Rua Aprazí_vel, 62, Santa Teresa, Rio de Janeiro",santa teresa,"santa teresa, rio de janeiro",-43.18736944,-22.92481389,brazilian,300,Brazilian Real(R$),False,False,False,No,4,4.7,Dark Green,Excellent,44,Brazil,medium,2,brazilian,['brazilian'],4.7,0.004024144869215292,0.6592072434607646
7302859,aconchego carioca,30,Rio de Janeiro,"Rua Barí£o de Iguatemi, 379, Tijuca, Rio de Janeiro",tijuca,"tijuca, rio de janeiro",-43.21551111,-22.91370833,"brazilian, bar food",85,Brazilian Real(R$),False,False,False,No,3,4.6,Dark Green,Excellent,24,Brazil,low,1,brazilian,"['brazilian', 'bar food']",4.6,0.002194988110481068,0.6446584964331442
7301700,garota de ipanema,30,Rio de Janeiro,"Avenida Joí£o Alves, 56, Urca, Rio de Janeiro",urca,"urca, rio de janeiro",-43.16266667,-22.94783333,"brazilian, bar food",80,Brazilian Real(R$),False,False,False,No,3,4.3,Green,Very Good,10,Brazil,low,1,brazilian,"['brazilian', 'bar food']",4.3,0.0009145783793671117,0.6022743735138101
6706313,cantina famiglia mancini,30,Sí£o Paulo,"Rua Avanhandava, 81, Bela Vista, Sí£o Paulo 10000","bela vista, centro","bela vista, centro, sí£o paulo",-46.64516667,-23.55066667,"italian, pizza",250,Brazilian Real(R$),False,False,False,No,4,4.5,Dark Green,Excellent,49,Brazil,low,1,italian,"['italian', 'pizza']",4.5,0.004481434058898848,0.6313444302176696
6704326,templo da carne - marcos bassi,30,Sí£o Paulo,"Rua Treze de Maio, 668, Bela Vista, Sí£o Paulo 01327000","bela vista, centro","bela vista, centro, sí£o paulo",-46.64633333,-23.559,"steak, bbq",250,Brazilian Real(R$),False,False,False,No,4,4.4,Green,Very Good,17,Brazil,low,1,steak,"['steak', 'bbq']",4.4,0.00155478324492409,0.6164664349734772
6711179,gopala hari,30,Sí£o Paulo,"Rua Antonio Carlos, 429, Consolaí_í£o, Sí£o Paulo",consolaí_í£o,"consolaí_í£o, sí£o paulo",-46.65866667,-23.55616667,indian,70,Brazilian Real(R$),False,False,False,No,3,3.1,Orange,Average,5,Brazil,low,1,indian,['indian'],3.1,0.00045728918968355586,0.43413718675690505
6702797,jiquitaia,30,Sí£o Paulo,"Rua AntíÇnio Carlos, 268, Consolaí_í£o, Sí£o Paulo",consolaí_í£o,"consolaí_í£o, sí£o paulo",-46.657523,-23.55671,brazilian,100,Brazilian Real(R$),False,False,False,No,4,4.1,Green,Very Good,15,Brazil,low,1,brazilian,['brazilian'],4.1,0.0013718675690506676,0.5744115602707152
6700475,skye - hotel unique,30,Sí£o Paulo,"Hotel Unique, Avenida Brigadeiro Luí_s AntíÇnio, 4700, Jardim Paulista, Sí£o Paulo","hotel unique, jardim paulista","hotel unique, jardim paulista, sí£o paulo",-46.666851,-23.581688,"beverages, international",300,Brazilian Real(R$),False,False,False,No,4,4.8,Dark Green,Excellent,59,Brazil,medium,2,beverages,"['beverages', 'international']",4.8,0.0053960124382659595,0.6736188037314798
6713413,les 3 brasseurs,30,Sí£o Paulo,"Rua Jesuí_no Arruda, 470, Itaim Bibi, Sí£o Paulo",itaim bibi,"itaim bibi, sí£o paulo",-46.67511,-23.582135,"french, brazilian, beverages",120,Brazilian Real(R$),False,False,False,No,4,4.6,Dark Green,Excellent,30,Brazil,low,1,french,"['french', 'brazilian', 'beverages']",4.6,0.0027437351381013352,0.6448231205414303
6714340,red steak & burger,30,Sí£o Paulo,"Rua Tabapuí£, 1417, Itaim Bibi, Sí£o Paulo",itaim bibi,"itaim bibi, sí£o paulo",-46.683888,-23.585324,"brazilian, grill",75,Brazilian Real(R$),False,False,False,No,3,3.9,Yellow,Good,5,Brazil,low,1,brazilian,"['brazilian', 'grill']",3.9,0.00045728918968355586,0.5461371867569051
6710645,cantinho da gula,30,Sí£o Paulo,"Rua Pedroso Alvarenga, 522, Itaim Bibi, Sí£o Paulo, SP",itaim bibi,"itaim bibi, sí£o paulo",-46.67566667,-23.581,brazilian,55,Brazilian Real(R$),False,False,False,No,2,0.0,White,Not rated,0,Brazil,low,1,brazilian,['brazilian'],0.0,0.0,0.0
6700402,paris 6 classique,30,Sí£o Paulo,"Rua Haddock Lobo, 1240, Cerqueira Cí©sar, Jardim Paulista, Sí£o Paulo",jardim paulista,"jardim paulista, sí£o paulo",-46.666041,-23.561568,french,200,Brazilian Real(R$),False,False,False,No,4,3.4,Orange,Average,73,Brazil,low,1,french,['french'],3.4,0.006676422169379916,0.47800292665081395
6700846,kawa sushi,30,Sí£o Paulo,"Alameda Lorena, 300, Jardim Paulista, Sí£o Paulo",jardim paulista,"jardim paulista, sí£o paulo",-46.657418,-23.571638,"sushi, japanese",120,Brazilian Real(R$),False,False,False,No,4,3.5,Yellow,Good,9,Brazil,low,1,sushi,"['sushi', 'japanese']",3.5,0.0008231205414304006,0.49024693616242904
6702159,a figueira rubaiyat,30,Sí£o Paulo,"Rua Haddock Lobo, 1738, Cerqueira Cí©sar, Jardim Paulista, Sí£o Paulo 10000",jardim paulista,"jardim paulista, sí£o paulo",-46.66983333,-23.5655,"bbq, grill, brazilian",300,Brazilian Real(R$),False,False,False,No,4,4.3,Green,Very Good,39,Brazil,medium,2,bbq,"['bbq', 'grill', 'brazilian']",4.3,0.003566855679531736,0.6030700567038595
6711666,kinoshita,30,Sí£o Paulo,"Rua Jacques Fí©lix, 405, Vila Nova Conceií_í£o, Moema, Sí£o Paulo",moema,"moema, sí£o paulo",-46.67133333,-23.59233333,sushi,230,Brazilian Real(R$),False,False,False,No,4,3.9,Yellow,Good,12,Brazil,low,1,sushi,['sushi'],3.9,0.001097494055240534,0.5463292482165722
6701257,meats,30,Sí£o Paulo,"Rua dos Pinheiros, 320, Pinheiros, Sí£o Paulo",pinheiros,"pinheiros, sí£o paulo",-46.68133333,-23.56483333,"gourmet fast food, burger",120,Brazilian Real(R$),False,False,False,No,4,4.3,Green,Very Good,68,Brazil,low,1,gourmet fast food,"['gourmet fast food', 'burger']",4.3,0.00621913297969636,0.6038657398939089
6706211,paribar,30,Sí£o Paulo,"Praí_a Dom Josí© Gaspar, 42, Repí_blica, Sí£o Paulo 10000",repí_blica,"repí_blica, sí£o paulo",-46.64159444,-23.54664167,"brazilian, italian",150,Brazilian Real(R$),False,False,False,No,4,4.3,Green,Very Good,46,Brazil,low,1,brazilian,"['brazilian', 'italian']",4.3,0.004207060545088714,0.6032621181635266
6705858,terraí_o itíçlia,30,Sí£o Paulo,"Edifí_cio Itíçlia - 41Á Andar, Avenida Ipiranga, 344, Repí_blica, Sí£o Paulo",repí_blica,"repí_blica, sí£o paulo",-46.643425,-23.545163,italian,400,Brazilian Real(R$),False,False,False,No,4,4.4,Green,Very Good,37,Brazil,medium,2,italian,['italian'],4.4,0.0033839400036583134,0.6170151820010975
6701419,divino fogí£o,30,Sí£o Paulo,"Shopping MetríÇ Santa Cruz - Piso L2, Rua Domingos de Morais, 2564, Vila Mariana, Sí£o Paulo","shopping metríç santa cruz, vila mariana","shopping metríç santa cruz, vila mariana, sí£o paulo",-46.63716667,-23.5995,"brazilian, mineira",65,Brazilian Real(R$),False,False,False,No,3,0.0,White,Not rated,2,Brazil,low,1,brazilian,"['brazilian', 'mineira']",0.0,0.00018291567587342235,5.48747027620267e-05
6703956,super grill,30,Sí£o Paulo,"Shopping Morumbi - Piso Lazer, Avenida Roque Petroni Jí_nior, 1089, Santo Amaro, Sí£o Paulo","shopping morumbi, santo amaro","shopping morumbi, santo amaro, sí£o paulo",-46.698574,-23.622925,brazilian,50,Brazilian Real(R$),False,False,False,No,2,0.0,White,Not rated,2,Brazil,low,1,brazilian,['brazilian'],0.0,0.00018291567587342235,5.48747027620267e-05
6709580,esquina mocotí_,30,Sí£o Paulo,"Avenida Nossa Senhora do Loreto, 1104, Vila Medeiros, Vila Maria, Sí£o Paulo",vila maria,"vila maria, sí£o paulo",-46.581672,-23.486535,"brazilian, north eastern",100,Brazilian Real(R$),False,False,False,No,4,4.4,Green,Very Good,22,Brazil,low,1,brazilian,"['brazilian', 'north eastern']",4.4,0.002012072434607646,0.6166036217303823
6703176,veloso,30,Sí£o Paulo,"Rua Conceií_í£o Veloso, 56, Vila Mariana, Sí£o Paulo",vila mariana,"vila mariana, sí£o paulo",-46.63566667,-23.58516667,"brazilian, bar food, beverages",70,Brazilian Real(R$),False,False,False,No,3,4.6,Dark Green,Excellent,58,Brazil,low,1,brazilian,"['brazilian', 'bar food', 'beverages']",4.6,0.0053045546003292485,0.6455913663800987
6713772,sainte marie gastronomia,30,Sí£o Paulo,"Rua Dom Joí£o Batista da Costa, 70, Vila SíÇnia, Sí£o Paulo",vila síçnia,"vila síçnia, sí£o paulo",-46.746958,-23.609207,"lebanese, arabian",120,Brazilian Real(R$),False,False,False,No,4,4.1,Green,Very Good,11,Brazil,low,1,lebanese,"['lebanese', 'arabian']",4.1,0.001006036217303823,0.574301810865191
17284404,austin's bbq and oyster bar,216,Albany,"2820 Meredyth Dr, Albany, GA 31707",albany,"albany, albany",-84.221535,31.610387,"bbq, burger, seafood",25,Dollar($),False,False,False,No,2,3.3,Orange,Average,35,United States,low,1,bbq,"['bbq', 'burger', 'seafood']",3.3,0.003201024327784891,0.46296030729833537
17284203,bj's country buffet,216,Albany,"2401 Dawson Rd, Albany, GA 31707",albany,"albany, albany",-84.207095,31.608743,"american, bbq",10,Dollar($),False,False,False,No,1,3.3,Orange,Average,25,United States,low,1,american,"['american', 'bbq']",3.3,0.0022864459484177794,0.46268593378452527
17284105,cookie shoppe,216,Albany,"115 N Jackson St, Albany, GA 31701",albany,"albany, albany",-84.154,31.5772,not specified,0,Dollar($),False,False,False,No,1,3.4,Orange,Average,34,United States,low,1,not specified,['not specified'],3.4,0.00310956648984818,0.47693286994695444
17284302,el vaquero mexican restaurant,216,Albany,"2700 Dawson Rd, Albany, GA 31707",albany,"albany, albany",-84.2194,31.6158,mexican,0,Dollar($),False,False,False,No,1,3.4,Orange,Average,45,United States,low,1,mexican,['mexican'],3.4,0.004115602707152003,0.4772346808121456
17284397,elements coffee co - northwest,216,Albany,"2726 Ledo Rd Ste 10, Albany, GA 31707",albany,"albany, albany",-84.206944,31.622412,"coffee and tea, sandwich",10,Dollar($),False,False,False,No,1,3.4,Orange,Average,26,United States,low,1,coffee and tea,"['coffee and tea', 'sandwich']",3.4,0.0023779037863544904,0.47671337113590634
17284211,pearly's famous country cookng,216,Albany,"814 N Slappey Blvd, Albany, GA 31701",albany,"albany, albany",-84.1759,31.5882,not specified,0,Dollar($),False,False,False,No,1,3.4,Orange,Average,36,United States,low,1,not specified,['not specified'],3.4,0.0032924821657216025,0.47698774464971644
17284094,chick-fil-a,216,Albany,"2703 Dawson Rd, Albany, GA 31707",albany,"albany, albany",-84.2193,31.616,fast food,10,Dollar($),False,False,False,No,1,3.5,Yellow,Good,67,United States,low,1,fast food,['fast food'],3.5,0.006127675141759649,0.4918383025425278
17284409,guang zhou chinese restaurant,216,Albany,"1214 N Westover Blvd, Albany, GA 31707",albany,"albany, albany",-84.2091458,31.6155186,"asian, chinese, vegetarian",10,Dollar($),False,False,False,No,1,3.9,Yellow,Good,141,United States,low,1,asian,"['asian', 'chinese', 'vegetarian']",3.9,0.012895555149076275,0.5498686665447229
17284139,harvest moon,216,Albany,"2347 Dawson Road, Albany, GA 31707",albany,"albany, albany",-84.205718,31.604905,"pizza, bar food, sandwich",25,Dollar($),False,False,False,No,2,3.7,Yellow,Good,147,United States,low,1,pizza,"['pizza', 'bar food', 'sandwich']",3.7,0.013444302176696543,0.522033290653009
17284403,henry campbell's steakhouse,216,Albany,"629 N. Westover Blvd, Albany, GA 31707",albany,"albany, albany",-84.223278,31.612121,"steak, tapas, bar food",70,Dollar($),False,False,False,No,4,3.5,Yellow,Good,51,United States,low,1,steak,"['steak', 'tapas', 'bar food']",3.5,0.00466434973477227,0.4913993049204316
17284145,hong kong cafe,216,Albany,"2700 Dawson Rd, Albany, GA 31707",albany,"albany, albany",-84.2191,31.6156,"chinese, seafood, vegetarian",25,Dollar($),False,False,False,No,2,3.6,Yellow,Good,88,United States,low,1,chinese,"['chinese', 'seafood', 'vegetarian']",3.6,0.008048289738430584,0.5064144869215291
17284150,house of china restaurant ii,216,Albany,"2526 Dawson Rd Ste A, Albany, GA 31707",albany,"albany, albany",-84.212,31.6104,chinese,10,Dollar($),False,False,False,No,1,3.8,Yellow,Good,153,United States,low,1,chinese,['chinese'],3.8,0.01399304920431681,0.536197914761295
17284158,jimmie's hot dogs,216,Albany,"204 S Jackson St, Albany, GA 31701",albany,"albany, albany",-84.1534,31.5751,not specified,10,Dollar($),False,False,False,No,1,3.9,Yellow,Good,160,United States,low,1,not specified,['not specified'],3.9,0.014633254069873787,0.5503899762209622
17284175,locos grill & pub,216,Albany,"547 N Westover Blvd, Albany, GA 31707",albany,"albany, albany",-84.2228,31.6077,"american, burger, sandwich",25,Dollar($),False,False,False,No,2,3.5,Yellow,Good,57,United States,low,1,american,"['american', 'burger', 'sandwich']",3.5,0.005213096762392537,0.4915639290287177
17284179,longhorn steakhouse,216,Albany,"2733 Dawson Rd, Albany, GA 31707",albany,"albany, albany",-84.2229,31.6185,"american, steak",25,Dollar($),False,False,False,No,2,3.5,Yellow,Good,58,United States,low,1,american,"['american', 'steak']",3.5,0.0053045546003292485,0.4915913663800987
17284197,mikata japanese steakhouse,216,Albany,"2610 Dawson Rd, Albany, GA 31707",albany,"albany, albany",-84.2164,31.6137,"japanese, steak, sushi",40,Dollar($),False,False,False,No,3,3.6,Yellow,Good,115,United States,low,1,japanese,"['japanese', 'steak', 'sushi']",3.6,0.010517651362721786,0.5071552954088165
17284241,shogun japanese steak house,216,Albany,"629 N Westover Blvd, Albany, GA 31707",albany,"albany, albany",-84.2233,31.6118,"japanese, steak, sushi",40,Dollar($),False,False,False,No,3,3.5,Yellow,Good,51,United States,low,1,japanese,"['japanese', 'steak', 'sushi']",3.5,0.00466434973477227,0.4913993049204316
17284390,the catch seafood room & oyster bar,216,Albany,"2332 Whispering Pines Road, Albany, GA 31707",albany,"albany, albany",-84.205025,31.605882,"seafood, tapas, bar food",40,Dollar($),False,False,False,No,3,3.8,Yellow,Good,250,United States,low,1,seafood,"['seafood', 'tapas', 'bar food']",3.8,0.022864459484177795,0.5388593378452533
17284279,villa gargano,216,Albany,"1604 N Slappey Blvd, Albany, GA 31701",albany,"albany, albany",-84.1757,31.5985,"italian, pizza",10,Dollar($),False,False,False,No,1,3.7,Yellow,Good,117,United States,low,1,italian,"['italian', 'pizza']",3.7,0.010700567038595208,0.5212101701115786
17284364,3 squares diner,216,Albany,"202 W Franklin St, Sylvester, GA 31791",sylvester,"sylvester, albany",-83.8389,31.5308,"american, breakfast, diner",10,Dollar($),False,False,False,No,1,3.4,Orange,Average,20,United States,low,1,american,"['american', 'breakfast', 'diner']",3.4,0.0018291567587342234,0.47654874702762023
16611114,whitebull hotel,14,Armidale,"117 Marsh St, Armidale, NSW",armidale,"armidale, armidale",151.6688792,-30.5147169,"bar food, steak",20,Dollar($),False,False,False,No,2,3.5,Yellow,Good,25,Australia,low,1,bar food,"['bar food', 'steak']",3.5,0.0022864459484177794,0.4906859337845253
17293281,last resort grill,216,Athens,"184 W Clayton St, Athens, GA 30601",athens,"athens, athens",-83.378273,33.957999,"american, southern, southwestern",40,Dollar($),False,False,False,No,3,4.5,Dark Green,Excellent,1821,United States,low,1,american,"['american', 'southern', 'southwestern']",4.5,0.16654472288275105,0.6799634168648253
17293301,mama's boy restaurant,216,Athens,"197 Oak St, GA 30601",athens,"athens, athens",-83.3654,33.9535,southern,10,Dollar($),False,False,False,No,1,4.5,Dark Green,Excellent,849,United States,low,1,southern,['southern'],4.5,0.07764770440826779,0.6532943113224804
17293409,sr. sol 1,216,Athens,"175 Tallassee Rd, Athens, GA 30606",athens,"athens, athens",-83.4293,33.9652,mexican,10,Dollar($),False,False,False,No,1,4.6,Dark Green,Excellent,917,United States,low,1,mexican,['mexican'],4.6,0.08386683738796415,0.6691600512163891
17293163,choo choo eastside,216,Athens,"1055 Gaines School Rd Ste 100, Athens, GA 30605",athens,"athens, athens",-83.3389,33.9259,"japanese, korean",10,Dollar($),False,False,False,No,1,3.9,Yellow,Good,439,United States,low,1,japanese,"['japanese', 'korean']",3.9,0.04014999085421621,0.5580449972562649
17293228,the grill,216,Athens,"171 College Ave, Athens, GA 30601",athens,"athens, athens",-83.375523,33.958198,"breakfast, burger, sandwich",10,Dollar($),False,False,False,No,1,3.7,Yellow,Good,289,United States,low,1,breakfast,"['breakfast', 'burger', 'sandwich']",3.7,0.02643131516370953,0.5259293945491129
17293880,big city bread cafe,216,Athens,"393 N Finley St, Athens, GA 30601",athens,"athens, athens",-83.384004,33.959392,"breakfast, sandwich",10,Dollar($),False,False,False,No,1,4.3,Green,Very Good,558,United States,low,1,breakfast,"['breakfast', 'sandwich']",4.3,0.05103347356868484,0.6173100420706055
17293169,clocked,216,Athens,"259 W Washington St, Athens, GA 30601",athens,"athens, athens",-83.3797,33.9584,"american, burger, sandwich",10,Dollar($),False,False,False,No,1,4.2,Green,Very Good,613,United States,low,1,american,"['american', 'burger', 'sandwich']",4.2,0.05606365465520395,0.6048190963965612
17293186,depalma's italian cafe - downtown,216,Athens,"401 E Broad St, Athens, GA 30601",athens,"athens, athens",-83.373596,33.958112,"american, italian, pizza",25,Dollar($),False,False,False,No,2,4.0,Green,Very Good,353,United States,low,1,american,"['american', 'italian', 'pizza']",4.0,0.032284616791659046,0.5696853850374977
17293180,depalma's italian cafe - east side,216,Athens,"1965 Barnett Shoals Rd, Athens, GA 30605",athens,"athens, athens",-83.33995,33.924275,"american, italian, pizza",25,Dollar($),False,False,False,No,2,4.1,Green,Very Good,387,United States,low,1,american,"['american', 'italian', 'pizza']",4.1,0.03539418328150722,0.5846182549844521
17293205,five & ten,216,Athens,"1073 South Milledge Ave, Athens, GA 30605",athens,"athens, athens",-83.3872482,33.9415545,american,40,Dollar($),False,False,False,No,3,4.3,Green,Very Good,755,United States,low,1,american,['american'],4.3,0.06905066764221694,0.622715200292665
17293229,grit,216,Athens,"199 Prince Ave, Athens, GA 30601",athens,"athens, athens",-83.381625,33.960112,"international, southern, vegetarian",10,Dollar($),False,False,False,No,1,4.2,Green,Very Good,800,United States,low,1,international,"['international', 'southern', 'vegetarian']",4.2,0.07316627034936894,0.6099498811048106
17293897,ike & jane,216,Athens,"1307 Prince Ave, Athens, GA 30606",athens,"athens, athens",-83.400887,33.963296,sandwich,10,Dollar($),False,False,False,No,1,4.1,Green,Very Good,350,United States,low,1,sandwich,['sandwich'],4.1,0.03201024327784891,0.5836030729833547
17293273,la dolce vita ristorante,216,Athens,"323 E Broad St, Athens, GA 30601",athens,"athens, athens",-83.4075,33.9584,italian,40,Dollar($),False,False,False,No,3,4.1,Green,Very Good,464,United States,low,1,italian,['italian'],4.1,0.04243643680263399,0.5867309310407901
17293870,shokitini,216,Athens,"251 W Clayton St, Athens, GA 30601",athens,"athens, athens",-83.379251,33.957503,"asian, japanese, sushi",25,Dollar($),False,False,False,No,2,4.2,Green,Very Good,550,United States,low,1,asian,"['asian', 'japanese', 'sushi']",4.2,0.05030181086519115,0.6030905432595574
17293877,taqueria del sol,216,Athens,"334 Prince Ave, Athens, GA 30601",athens,"athens, athens",-83.383605,33.960571,"mexican, spanish",10,Dollar($),False,False,False,No,1,4.1,Green,Very Good,543,United States,low,1,mexican,"['mexican', 'spanish']",4.1,0.04966160599963417,0.5888984817998902
17293890,the national,216,Athens,"232 W. Hancock Ave., Athens, GA 30601",athens,"athens, athens",-83.37967,33.959468,"international, southern",40,Dollar($),False,False,False,No,3,4.1,Green,Very Good,465,United States,low,1,international,"['international', 'southern']",4.1,0.0425278946405707,0.5867583683921712
17293915,the royal peasant,216,Athens,"1675 S. Lumpkin St., Athens, GA 30606",athens,"athens, athens",-83.38728,33.937502,bar food,10,Dollar($),False,False,False,No,1,4.4,Green,Very Good,546,United States,low,1,bar food,['bar food'],4.4,0.0499359795134443,0.6309807938540333
17293422,transmetropolitan,216,Athens,"145 E Clayton St, Athens, GA 30601",athens,"athens, athens",-83.3764,33.9584,"italian, pizza, sandwich",10,Dollar($),False,False,False,No,1,4.4,Green,Very Good,1098,United States,low,1,italian,"['italian', 'pizza', 'sandwich']",4.4,0.10042070605450887,0.6461262118163527
17293873,trappeze pub,216,Athens,"269 N Hull St, Athens, GA 30601",athens,"athens, athens",-83.378881,33.958363,"burger, bar food",25,Dollar($),False,False,False,No,2,4.2,Green,Very Good,579,United States,low,1,burger,"['burger', 'bar food']",4.2,0.052954088165355774,0.6038862264496067
17294014,viva! argentine cuisine,216,Athens,"247 Prince Ave, Athens, GA 30601",athens,"athens, athens",-83.3828224,33.9600227,"desserts, latin american, argentine",10,Dollar($),False,False,False,No,1,4.1,Green,Very Good,374,United States,low,1,desserts,"['desserts', 'latin american', 'argentine']",4.1,0.03420523138832998,0.584261569416499
17294556,miyabi kyoto japanese steak house,216,Augusta,"1315 Augusta West Pkwy, Augusta, GA 30909",augusta,"augusta, augusta",-82.0865,33.4721,"chinese, steak",40,Dollar($),False,False,False,No,3,4.6,Dark Green,Excellent,717,United States,low,1,chinese,"['chinese', 'steak']",4.6,0.06557526980062191,0.6636725809401864
17294607,rae's coastal cafe,216,Augusta,"3208 W Wimbledon Dr, Augusta, GA 30909",augusta,"augusta, augusta",-82.0698,33.4791,"american, caribbean, seafood",40,Dollar($),False,False,False,No,3,4.9,Dark Green,Excellent,548,United States,low,1,american,"['american', 'caribbean', 'seafood']",4.9,0.050118895189317725,0.7010356685567953
17294279,the bee's knees,216,Augusta,"211 10th Street, Augusta, GA 30901",augusta,"augusta, augusta",-81.97,33.4765,"international, tapas, vegetarian",25,Dollar($),False,False,False,No,2,4.5,Dark Green,Excellent,631,United States,low,1,international,"['international', 'tapas', 'vegetarian']",4.5,0.05770989573806475,0.6473129687214194
17294300,boll weevil cafe,216,Augusta,"10 9th St, Augusta, GA 30901",augusta,"augusta, augusta",-81.9684,33.474,"desserts, sandwich, southern",10,Dollar($),False,False,False,No,1,3.9,Yellow,Good,372,United States,low,1,desserts,"['desserts', 'sandwich', 'southern']",3.9,0.034022315712456556,0.556206694713737
17295215,farmhaus burger,216,Augusta,"1204 Broad St, Augusta, GA 30901",augusta,"augusta, augusta",-81.973006,33.477444,"american, burger",25,Dollar($),False,False,False,No,2,3.9,Yellow,Good,201,United States,low,1,american,"['american', 'burger']",3.9,0.018383025425278945,0.5515149076275837
17295028,manuel's bread cafe,216,Augusta,"505 Railroad Ave, North Augusta, GA 29841",augusta,"augusta, augusta",-81.965571,33.481779,"breakfast, french",40,Dollar($),False,False,False,No,3,3.8,Yellow,Good,332,United States,low,1,breakfast,"['breakfast', 'french']",3.8,0.03036400219498811,0.5411092006584963
17294642,sconyers bar b que,216,Augusta,"2250 Sconyers Way, Augusta, GA 30906",augusta,"augusta, augusta",-82.0327,33.4086,bbq,25,Dollar($),False,False,False,No,2,3.5,Yellow,Good,304,United States,low,1,bbq,['bbq'],3.5,0.0278031827327602,0.498340954819828
17295109,frog hollow tavern,216,Augusta,"1282 broad street, Augusta, GA 30901",augusta,"augusta, augusta",-81.974944,33.478231,american,40,Dollar($),False,False,False,No,3,4.3,Green,Very Good,368,United States,low,1,american,['american'],4.3,0.03365648436070971,0.6120969453082129
17294441,giuseppe's pizza & italian specialities,216,Augusta,"3690 Wheeler Rd, Augusta, GA 30909",augusta,"augusta, augusta",-82.096,33.4827,"desserts, italian, pizza",25,Dollar($),False,False,False,No,2,4.1,Green,Very Good,430,United States,low,1,desserts,"['desserts', 'italian', 'pizza']",4.1,0.039326870312785804,0.5857980610938357
17294552,mellow mushroom,216,Augusta,"1167 Broad St, Augusta, GA 30901",augusta,"augusta, augusta",-81.9721,33.4778,"italian, pizza, sandwich",25,Dollar($),False,False,False,No,2,4.4,Green,Very Good,433,United States,low,1,italian,"['italian', 'pizza', 'sandwich']",4.4,0.03960124382659594,0.6278803731479787
17294565,nacho mamas burritos,216,Augusta,"976 Broad St, Augusta, GA 30901",augusta,"augusta, augusta",-81.9694,33.4764,mexican,10,Dollar($),False,False,False,No,1,4.0,Green,Very Good,380,United States,low,1,mexican,['mexican'],4.0,0.034753978415950244,0.570426193524785
17294623,rhinehart's oyster bar,216,Augusta,"3051 Washington Rd, Augusta, GA 30907",augusta,"augusta, augusta",-82.0505,33.5133,"bar food, sandwich, seafood",25,Dollar($),False,False,False,No,2,4.0,Green,Very Good,456,United States,low,1,bar food,"['bar food', 'sandwich', 'seafood']",4.0,0.04170477409914029,0.572511432229742
17294712,takosushi,216,Augusta,"437 Highland Ave, Augusta, GA 30909",augusta,"augusta, augusta",-82.0301,33.4848,"mexican, southwestern, sushi",40,Dollar($),False,False,False,No,3,4.2,Green,Very Good,647,United States,low,1,mexican,"['mexican', 'southwestern', 'sushi']",4.2,0.05917322114505213,0.6057519663435156
17295033,the chop house,216,Augusta,"Augusta Mall, Augusta, GA 30909",augusta,"augusta, augusta",-82.080788,33.467201,steak,40,Dollar($),False,False,False,No,3,4.0,Green,Very Good,360,United States,low,1,steak,['steak'],4.0,0.032924821657216025,0.5698774464971648
17295069,the taj of india,216,Augusta,"502 Furys Ferry Rd, Augusta, GA 30907",augusta,"augusta, augusta",-82.0805493,33.5375868,indian,25,Dollar($),False,False,False,No,2,4.0,Green,Very Good,227,United States,low,1,indian,['indian'],4.0,0.020760929211633437,0.56622827876349
17294261,augsburg haus,216,Augusta,"4460 Washington Road, Evans, GA 30809",evans,"evans, augusta",-82.143793,33.544342,german,25,Dollar($),False,False,False,No,2,3.9,Yellow,Good,290,United States,low,1,german,['german'],3.9,0.02652277300164624,0.5539568319004939
17295115,pho bac,216,Augusta,"4300 Towne Centre, Evans, GA 30809",evans,"evans, augusta",-82.126161,33.532249,vietnamese,10,Dollar($),False,False,False,No,1,4.1,Green,Very Good,270,United States,low,1,vietnamese,['vietnamese'],4.1,0.02469361624291202,0.5814080848728735
17294836,rhinehart's oyster bar,216,Augusta,"303 North Bel Air Rd, Evans, GA 30809",evans,"evans, augusta",-82.141284,33.521291,"burger, seafood",25,Dollar($),False,False,False,No,2,4.0,Green,Very Good,326,United States,low,1,burger,"['burger', 'seafood']",4.0,0.029815255167367844,0.5689445765502102
17294850,thai kitchen,216,Augusta,"4357 Washington Road, Evans, GA 30809",evans,"evans, augusta",-82.1328,33.5406,thai,35,Dollar($),False,False,False,No,3,4.3,Green,Very Good,317,United States,low,1,thai,['thai'],4.3,0.028992134625937444,0.6106976403877812
17294883,el kiosco mexican restaurant,216,Augusta,"5174 Wrightsboro Rd, Grovetown, GA 30813",grovetown,"grovetown, augusta",-82.1997,33.4574,mexican,10,Dollar($),False,False,False,No,1,4.2,Green,Very Good,300,United States,low,1,mexican,['mexican'],4.2,0.02743735138101335,0.596231205414304
16608864,taste of balingup,14,Balingup,"63 South Western Hwy, Balingup, WA",balingup,"balingup, balingup",115.9844924,-33.7845269,modern australian,20,Dollar($),False,False,False,No,2,3.2,Orange,Average,21,Australia,low,1,modern australian,['modern australian'],3.2,0.0019206145966709346,0.4485761843790012
16604911,bridge road brewers,14,Beechworth,"Old Coach House 50 Ford St, Beechworth, Beechworth, VIC",beechworth,"beechworth, beechworth",146.685852,-36.360439,"pizza, bar food",20,Dollar($),False,False,False,No,2,4.6,Dark Green,Excellent,237,Australia,low,1,pizza,"['pizza', 'bar food']",4.6,0.021675507591000547,0.6505026522773001
17303465,bardenay,216,Boise,"610 W Grove St, Boise, ID 83702",boise,"boise, boise",-116.2019,43.6138,"american, bar food",25,Dollar($),False,False,False,No,2,4.5,Dark Green,Excellent,879,United States,low,1,american,"['american', 'bar food']",4.5,0.08039143954636913,0.6541174318639107
17303642,flatbread neapolitan pizzeria,216,Boise,"800 W Main Suite 230, Boise, ID 83702",boise,"boise, boise",-116.203466,43.616068,"italian, pizza",25,Dollar($),False,False,False,No,2,4.6,Dark Green,Excellent,615,United States,low,1,italian,"['italian', 'pizza']",4.6,0.056246570331077377,0.6608739710993231
17303670,goldy's breakfast bistro,216,Boise,"108 S Capitol Blvd, Boise, ID 83702",boise,"boise, boise",-116.2023,43.6149,"breakfast, sandwich",25,Dollar($),False,False,False,No,2,4.5,Dark Green,Excellent,879,United States,low,1,breakfast,"['breakfast', 'sandwich']",4.5,0.08039143954636913,0.6541174318639107
17303545,chandlers steakhouse,216,Boise,"981 W Grove St, Boise, ID 83702",boise,"boise, boise",-116.2064,43.6157,"american, seafood, steak",70,Dollar($),False,False,False,No,4,3.9,Yellow,Good,379,United States,low,1,american,"['american', 'seafood', 'steak']",3.9,0.034662520578013535,0.5563987561734041
17303655,bar gernika basque pub & eatery,216,Boise,"202 S Capitol Blvd, Boise, ID 83702",boise,"boise, boise",-116.2031,43.614,"european, spanish",10,Dollar($),False,False,False,No,1,4.3,Green,Very Good,303,United States,low,1,european,"['european', 'spanish']",4.3,0.027711724894823486,0.610313517468447
17304691,barbacoa restaurant,216,Boise,"276 Bobwhite Ct, Boise, ID 83706",boise,"boise, boise",-116.185034,43.597235,"latin american, steak",70,Dollar($),False,False,False,No,4,4.1,Green,Very Good,538,United States,low,1,latin american,"['latin american', 'steak']",4.1,0.04920431680995061,0.5887612950429851
17303478,big jud's,216,Boise,"1289 Protest Rd, Boise, ID 83706",boise,"boise, boise",-116.2062,43.5945,"american, burger, sandwich",10,Dollar($),False,False,False,No,1,4.2,Green,Very Good,334,United States,low,1,american,"['american', 'burger', 'sandwich']",4.2,0.030546917870861532,0.5971640753612584
17303480,bittercreek ale house,216,Boise,"246 N 8th St, Boise, ID 83702",boise,"boise, boise",-116.2022,43.6167,"american, bar food",25,Dollar($),False,False,False,No,2,4.3,Green,Very Good,555,United States,low,1,american,"['american', 'bar food']",4.3,0.0507591000548747,0.6172277300164624
17304733,boise fry company,216,Boise,"204 N Capitol Blvd, Boise, ID 83702",boise,"boise, boise",-116.193409,43.610279,"american, burger",10,Dollar($),False,False,False,No,1,4.4,Green,Very Good,823,United States,low,1,american,"['american', 'burger']",4.4,0.0752698006219133,0.638580940186574
17303646,flying pie pizzaria,216,Boise,"6508 W Fairview Ave, Boise, ID 83704",boise,"boise, boise",-116.2625,43.6192,pizza,25,Dollar($),False,False,False,No,2,4.1,Green,Very Good,550,United States,low,1,pizza,['pizza'],4.1,0.05030181086519115,0.5890905432595573
17304929,fork,216,Boise,"199 N 8th St, Boise, ID 83702",boise,"boise, boise",-116.202845,43.616295,"american, burger",25,Dollar($),False,False,False,No,2,4.4,Green,Very Good,650,United States,low,1,american,"['american', 'burger']",4.4,0.05944759465886226,0.6338342783976587
17303684,guido's original new york style pizza,216,Boise,"235 N 5th St, Boise, ID 83702",boise,"boise, boise",-116.199,43.615,pizza,10,Dollar($),False,False,False,No,1,4.3,Green,Very Good,410,United States,low,1,pizza,['pizza'],4.3,0.037497713554051584,0.6132493140662154
17303772,los beto's,216,Boise,"5220 W Fairview Ave, Boise, ID 83706",boise,"boise, boise",-116.2463,43.6191,mexican,10,Dollar($),False,False,False,No,1,4.4,Green,Very Good,660,United States,low,1,mexican,['mexican'],4.4,0.060362173038229376,0.6341086519114688
17305123,lucianos italian restaurant,216,Boise,"11 N Orchard St, Boise, ID 83706",boise,"boise, boise",-116.245165,43.6051379,"italian, seafood, vegetarian",25,Dollar($),False,False,False,No,2,4.4,Green,Very Good,360,United States,low,1,italian,"['italian', 'seafood', 'vegetarian']",4.4,0.032924821657216025,0.6258774464971648
17303787,mai thai restaurant,216,Boise,"750 W Idaho St, Boise, ID 83702",boise,"boise, boise",-116.2021,43.6162,"sushi, thai",40,Dollar($),False,False,False,No,3,4.0,Green,Very Good,340,United States,low,1,sushi,"['sushi', 'thai']",4.0,0.0310956648984818,0.5693286994695445
17303990,shige japanese cuisine,216,Boise,"100 N 8th St, Boise, ID 83702",boise,"boise, boise",-116.2031,43.6156,"japanese, sushi, teriyaki",25,Dollar($),False,False,False,No,2,4.1,Green,Very Good,393,United States,low,1,japanese,"['japanese', 'sushi', 'teriyaki']",4.1,0.03594293030912749,0.5847828790927382
17304741,the egg factory,216,Boise,"8061 W Fairview Ave, Boise, ID 83704",boise,"boise, boise",-116.281809,43.619274,breakfast,10,Dollar($),False,False,False,No,1,4.3,Green,Very Good,422,United States,low,1,breakfast,['breakfast'],4.3,0.038595207609292116,0.6135785622827876
17304726,tucanos,216,Boise,"1388 S Entertainment Ave, Boise, ID 83709",boise,"boise, boise",-116.280614,43.591706,brazilian,40,Dollar($),False,False,False,No,3,4.0,Green,Very Good,435,United States,low,1,brazilian,['brazilian'],4.0,0.039784159502469364,0.5719352478507408
17304486,texas roadhouse,216,Boise,"3801 E Fairview Avenue, Meridian, Boise, ID 83642",meridian,"meridian, boise",-116.347304,43.619108,"american, bbq, steak",25,Dollar($),False,False,False,No,2,4.0,Green,Very Good,369,United States,low,1,american,"['american', 'bbq', 'steak']",4.0,0.03374794219864642,0.5701243826595939
17304533,brick 29,216,Boise,"320 11th Avenue S, Nampa, ID 83651",nampa,"nampa, boise",-116.5629,43.5777,american,40,Dollar($),False,False,False,No,3,4.4,Green,Very Good,487,United States,low,1,american,['american'],4.4,0.04453996707517834,0.6293619901225534
17316233,winifreds,216,Cedar Rapids/Iowa City,"3847 1st Ave SE, Cedar Rapids, IA 52402",cedar rapids,"cedar rapids, cedar rapids/iowa city",-91.6336,42.0179,"american, mediterranean, seafood",40,Dollar($),False,False,False,No,3,3.7,Yellow,Good,98,United States,low,1,american,"['american', 'mediterranean', 'seafood']",3.7,0.008962868117797696,0.5206888604353394
17315883,biaggi's ristorante italiano,216,Cedar Rapids/Iowa City,"320 Collins Rd NE, Cedar Rapids, IA 52402",cedar rapids,"cedar rapids, cedar rapids/iowa city",-91.6327,42.0281,"italian, pizza",40,Dollar($),False,False,False,No,3,4.1,Green,Very Good,365,United States,low,1,italian,"['italian', 'pizza']",4.1,0.03338211084689958,0.5840146332540699
17315995,el super burrito,216,Cedar Rapids/Iowa City,"3300 Johnson Ave NW, Cedar Rapids, IA 52405",cedar rapids,"cedar rapids, cedar rapids/iowa city",-91.7148,41.9748,mexican,10,Dollar($),False,False,False,No,1,4.1,Green,Very Good,190,United States,low,1,mexican,['mexican'],4.1,0.017376989207975122,0.5792130967623925
17316018,granite city food & brewery,216,Cedar Rapids/Iowa City,"4755 1st Ave SE, Cedar Rapids, IA 52402",cedar rapids,"cedar rapids, cedar rapids/iowa city",-91.6224,42.0249,"american, breakfast, burger",40,Dollar($),False,False,False,No,3,4.1,Green,Very Good,429,United States,low,1,american,"['american', 'breakfast', 'burger']",4.1,0.039235412474849095,0.5857706237424547
17316038,irish democrat,216,Cedar Rapids/Iowa City,"3207 1st Ave SE, Cedar Rapids, IA 52402",cedar rapids,"cedar rapids, cedar rapids/iowa city",-91.6347,42.01,"american, bbq, burger",25,Dollar($),False,False,False,No,2,4.4,Green,Very Good,430,United States,low,1,american,"['american', 'bbq', 'burger']",4.4,0.039326870312785804,0.6277980610938357
17316771,taste of india,216,Cedar Rapids/Iowa City,"1060 Old Marion Rd NE, Cedar Rapids, IA 52402",cedar rapids,"cedar rapids, cedar rapids/iowa city",-91.6499622,42.0215347,indian,25,Dollar($),False,False,False,No,2,4.2,Green,Very Good,186,United States,low,1,indian,['indian'],4.2,0.017011157856228278,0.5931033473568684
17316201,thai moon restaurant,216,Cedar Rapids/Iowa City,"4362 16th Ave SW, Cedar Rapids, IA 52404",cedar rapids,"cedar rapids, cedar rapids/iowa city",-91.7266,41.9639,"chinese, sushi, thai",10,Dollar($),False,False,False,No,1,4.2,Green,Very Good,220,United States,low,1,chinese,"['chinese', 'sushi', 'thai']",4.2,0.02012072434607646,0.5940362173038229
17316208,ting's red lantern,216,Cedar Rapids/Iowa City,"540 Boyson Rd NE, Cedar Rapids, IA 52402",cedar rapids,"cedar rapids, cedar rapids/iowa city",-91.6394,42.0468,chinese,10,Dollar($),False,False,False,No,1,4.2,Green,Very Good,347,United States,low,1,chinese,['chinese'],4.2,0.03173586976403878,0.5975207609292116
17316389,monica's,216,Cedar Rapids/Iowa City,"303 2nd Street, Coralville, IA 52241",coralville,"coralville, cedar rapids/iowa city",-91.569767,41.670466,"american, italian, pizza",25,Dollar($),False,False,False,No,2,3.8,Yellow,Good,161,United States,low,1,american,"['american', 'italian', 'pizza']",3.8,0.0147247119078105,0.5364174135723431
17316278,exotic india,216,Cedar Rapids/Iowa City,"102 2nd Ave, Coralville, IA 52241",coralville,"coralville, cedar rapids/iowa city",-91.5687,41.6685,indian,25,Dollar($),False,False,False,No,2,4.1,Green,Very Good,160,United States,low,1,indian,['indian'],4.1,0.014633254069873787,0.5783899762209621
17316744,shorts burger and shine,216,Cedar Rapids/Iowa City,"18 S Clinton St, Iowa City, IA 52240",iowa city,"iowa city, cedar rapids/iowa city",-91.534424,41.660982,burger,10,Dollar($),False,False,False,No,1,4.9,Dark Green,Excellent,820,United States,low,1,burger,['burger'],4.9,0.07499542710810317,0.708498628132431
17316751,the hamburg inn no. 2 inc.,216,Cedar Rapids/Iowa City,"214 N Linn St, Iowa City, IA 52245",iowa city,"iowa city, cedar rapids/iowa city",-91.531414,41.663849,"american, breakfast, burger",10,Dollar($),False,False,False,No,1,4.5,Dark Green,Excellent,488,United States,low,1,american,"['american', 'breakfast', 'burger']",4.5,0.04463142491311505,0.6433894274739346
17316766,bluebird diner,216,Cedar Rapids/Iowa City,"330 E Market St, Iowa City, IA 52245",iowa city,"iowa city, cedar rapids/iowa city",-91.531093,41.663751,"breakfast, diner",25,Dollar($),False,False,False,No,2,3.6,Yellow,Good,253,United States,low,1,breakfast,"['breakfast', 'diner']",3.6,0.023138832997987926,0.5109416498993964
17316743,graze,216,Cedar Rapids/Iowa City,"115 East College St, Iowa City, IA 52240",iowa city,"iowa city, cedar rapids/iowa city",-91.534302,41.658691,"american, international, sushi",40,Dollar($),False,False,False,No,3,3.8,Yellow,Good,220,United States,low,1,american,"['american', 'international', 'sushi']",3.8,0.02012072434607646,0.5380362173038229
17316374,a & a pagliai's pizza,216,Cedar Rapids/Iowa City,"302 E Bloomington St, Iowa City, IA 52245",iowa city,"iowa city, cedar rapids/iowa city",-91.5314,41.6648,pizza,25,Dollar($),False,False,False,No,2,4.3,Green,Very Good,485,United States,low,1,pizza,['pizza'],4.3,0.04435705139930492,0.6153071154197914
17316381,atlas world grill,216,Cedar Rapids/Iowa City,"127 Iowa Ave, Iowa City, IA 52240",iowa city,"iowa city, cedar rapids/iowa city",-91.5341,41.661,international,40,Dollar($),False,False,False,No,3,4.3,Green,Very Good,428,United States,low,1,international,['international'],4.3,0.039143954636912386,0.6137431863910737
17316802,blackstone,216,Cedar Rapids/Iowa City,"503 Westbury Dr Ste 1, Iowa City, IA 52245",iowa city,"iowa city, cedar rapids/iowa city",-91.482165,41.667742,"american, breakfast",25,Dollar($),False,False,False,No,2,4.1,Green,Very Good,294,United States,low,1,american,"['american', 'breakfast']",4.1,0.026888604353393086,0.5820665813060178
17316416,devotay,216,Cedar Rapids/Iowa City,"117 N Linn St, Iowa City, IA 52245",iowa city,"iowa city, cedar rapids/iowa city",-91.5318,41.6625,"mediterranean, tapas, vegetarian",40,Dollar($),False,False,False,No,3,4.0,Green,Very Good,380,United States,low,1,mediterranean,"['mediterranean', 'tapas', 'vegetarian']",4.0,0.034753978415950244,0.570426193524785
17316449,jimmy jack's rib shack,216,Cedar Rapids/Iowa City,"1940 Lower Muscatine Rd, Iowa City, IA 52240",iowa city,"iowa city, cedar rapids/iowa city",-91.5074,41.6428,bbq,25,Dollar($),False,False,False,No,2,4.2,Green,Very Good,259,United States,low,1,bbq,['bbq'],4.2,0.023687580025608196,0.5951062740076825
17316603,zoeys pizzeria,216,Cedar Rapids/Iowa City,"690 10th St, Marion, IA 52302",marion,"marion, cedar rapids/iowa city",-91.5995,42.0331,"pizza, sandwich",25,Dollar($),False,False,False,No,2,4.7,Dark Green,Excellent,433,United States,low,1,pizza,"['pizza', 'sandwich']",4.7,0.03960124382659594,0.6698803731479788
16659169,tokyo sushi,37,Chatham-Kent,"150 Richmond St, Chatham-Kent, ON N7M2V2",chatham-kent,"chatham-kent, chatham-kent",-82.188438,42.397683,"japanese, sushi",25,Dollar($),False,False,False,No,2,3.7,Yellow,Good,176,Canada,low,1,japanese,"['japanese', 'sushi']",3.7,0.01609657947686117,0.5228289738430584
17558684,berry patch restaurant,216,Clatskanie,"49289 Us-30, Westport, OR 97016",clatskanie,"clatskanie, clatskanie",-123.368151,46.126967,"american, breakfast, desserts",10,Dollar($),False,False,False,No,1,4.3,Green,Very Good,96,United States,low,1,american,"['american', 'breakfast', 'desserts']",4.3,0.008779952441924272,0.6046339857325772
18366580,sakura sushi & grill,216,Cochrane,"130 Quarry Street, Unit 20, Cochrane, AB T4C 0W5",cochrane,"cochrane, cochrane",-114.472474,51.183934,"asian, japanese",25,Dollar($),False,False,False,No,2,3.1,Orange,Average,6,United States,low,1,asian,"['asian', 'japanese']",3.1,0.000548747027620267,0.4341646241082861
17330755,uptown vietnam cuisine,216,Columbus,"1250 Broadway, Columbus, GA 31901",columbus,"columbus, columbus",-84.992671,32.470315,"asian, vietnamese",10,Dollar($),False,False,False,No,1,3.3,Orange,Average,33,United States,low,1,asian,"['asian', 'vietnamese']",3.3,0.0030181086519114686,0.4629054325955734
17330611,cafe le rue @ the landings,216,Columbus,"2523 Airport Thruway, Columbus, GA 31904",columbus,"columbus, columbus",-84.95591,32.519247,"american, seafood, cajun",25,Dollar($),False,False,False,No,2,4.6,Dark Green,Excellent,489,United States,low,1,american,"['american', 'seafood', 'cajun']",4.6,0.04472288275105177,0.6574168648253155
17330609,mark's city grille,216,Columbus,"7160 moon road, Columbus, GA 31909",columbus,"columbus, columbus",-84.927047,32.555591,american,25,Dollar($),False,False,False,No,2,4.5,Dark Green,Excellent,345,United States,low,1,american,['american'],4.5,0.03155295408816536,0.6394658862264496
17330024,b merrell's,216,Columbus,"7600 Veterans Pkwy, Columbus, GA 31909",columbus,"columbus, columbus",-84.9436,32.5577,"burger, bar food, southern",25,Dollar($),False,False,False,No,2,3.8,Yellow,Good,149,United States,low,1,burger,"['burger', 'bar food', 'southern']",3.8,0.013627217852569965,0.5360881653557709
17330074,cannon brewpub,216,Columbus,"1041 Broadway, Columbus, GA 31901",columbus,"columbus, columbus",-84.9936,32.4656,"pizza, bar food",25,Dollar($),False,False,False,No,2,3.9,Yellow,Good,330,United States,low,1,pizza,"['pizza', 'bar food']",3.9,0.030181086519114688,0.5550543259557345
17330185,fuji japanese steak house,216,Columbus,"6499 Veterans Pkwy, Columbus, GA 31909",columbus,"columbus, columbus",-84.954984,32.5382197,"japanese, steak",40,Dollar($),False,False,False,No,3,3.9,Yellow,Good,247,United States,low,1,japanese,"['japanese', 'steak']",3.9,0.02259008597036766,0.5527770257911103
17330397,ruth ann's family restaurant,216,Columbus,"941 Veterans Parkway, Columbus, GA 31901",columbus,"columbus, columbus",-84.9876,32.4637,"breakfast, diner, southern",10,Dollar($),False,False,False,No,1,3.7,Yellow,Good,123,United States,low,1,breakfast,"['breakfast', 'diner', 'southern']",3.7,0.011249314066215474,0.5213747942198647
17330735,samurai japanese cuisine & sushi bar,216,Columbus,"1009 Broadway, Columbus, GA 31901",columbus,"columbus, columbus",-84.9933631,32.4652417,"japanese, steak, sushi",40,Dollar($),False,False,False,No,3,3.6,Yellow,Good,109,United States,low,1,japanese,"['japanese', 'steak', 'sushi']",3.6,0.009968904335101518,0.5069906713005304
17330676,wasabi sushi and thai,216,Columbus,"1639 Bradley Park Dr, Columbus, GA 31904",columbus,"columbus, columbus",-84.96661,32.534002,"japanese, sushi, thai",40,Dollar($),False,False,False,No,3,3.7,Yellow,Good,134,United States,low,1,japanese,"['japanese', 'sushi', 'thai']",3.7,0.012255350283519298,0.5216766050850558
17330048,buckhead bar and grill,216,Columbus,"5010 Armour Rd, Columbus, GA 31904",columbus,"columbus, columbus",-84.95367,32.513154,"seafood, steak, vegetarian",40,Dollar($),False,False,False,No,3,4.2,Green,Very Good,722,United States,low,1,seafood,"['seafood', 'steak', 'vegetarian']",4.2,0.06603255899030547,0.6078097676970916
17330604,burt's butcher shoppe and eatery,216,Columbus,"2932 Warm Springs Rd, Columbus, GA 31909",columbus,"columbus, columbus",-84.947569,32.504657,steak,25,Dollar($),False,False,False,No,2,4.3,Green,Very Good,213,United States,low,1,steak,['steak'],4.3,0.01948051948051948,0.6078441558441559
17330087,chef lee's peking restaurant,216,Columbus,"6100 Bradley Park Dr, Columbus, GA 31904",columbus,"columbus, columbus",-84.9607,32.5393,chinese,25,Dollar($),False,False,False,No,2,4.0,Green,Very Good,335,United States,low,1,chinese,['chinese'],4.0,0.030638375708798245,0.5691915127126395
17330137,country's barbecue,216,Columbus,"3137 Mercury Dr, Columbus, GA 31906",columbus,"columbus, columbus",-84.9464,32.4792,"bbq, southern",25,Dollar($),False,False,False,No,2,4.0,Green,Very Good,353,United States,low,1,bbq,"['bbq', 'southern']",4.0,0.032284616791659046,0.5696853850374977
17330155,deorio's,216,Columbus,"3201 Macon Rd Ste 167, Columbus, GA 31906",columbus,"columbus, columbus",-84.9427,32.481,"italian, pizza",0,Dollar($),False,False,False,No,1,4.0,Green,Very Good,170,United States,low,1,italian,"['italian', 'pizza']",4.0,0.0155478324492409,0.5646643497347722
17330309,mellow mushroom,216,Columbus,"6100 Veterans Pkwy, Columbus, GA 31909",columbus,"columbus, columbus",-84.9557,32.5321,pizza,25,Dollar($),False,False,False,No,2,4.1,Green,Very Good,192,United States,low,1,pizza,['pizza'],4.1,0.017559904883848544,0.5792679714651545
17330311,meritage,216,Columbus,"1039 1st Ave, Columbus, GA 31901",columbus,"columbus, columbus",-84.992093,32.466158,"american, tapas",40,Dollar($),False,False,False,No,3,4.1,Green,Very Good,302,United States,low,1,american,"['american', 'tapas']",4.1,0.027620267056886773,0.582286080117066
17330615,mongo the mongolian fire pit,216,Columbus,"7830 - E Veterans Pkwy, Columbus, GA 31909",columbus,"columbus, columbus",-84.938698,32.560905,"asian, chinese",10,Dollar($),False,False,False,No,1,4.2,Green,Very Good,355,United States,low,1,asian,"['asian', 'chinese']",4.2,0.032467532467532464,0.5977402597402597
17330638,the black cow,216,Columbus,"115 A 12th St, Columbus, GA 31901",columbus,"columbus, columbus",-84.991384,32.468757,american,25,Dollar($),False,False,False,No,2,4.3,Green,Very Good,287,United States,low,1,american,['american'],4.3,0.026248399487836107,0.6098745198463508
17330628,wood stone,216,Columbus,"5739 Whitesville Rd, Columbus, GA 31904",columbus,"columbus, columbus",-84.963201,32.527217,"italian, mediterranean, pizza",40,Dollar($),False,False,False,No,3,4.0,Green,Very Good,264,United States,low,1,italian,"['italian', 'mediterranean', 'pizza']",4.0,0.02414486921529175,0.5672434607645874
17330546,hunter's pub,216,Columbus,"11269 GA Hwy 219, Hamilton, GA 31811",hamilton,"hamilton, columbus",-85.0213,32.7455,"american, seafood, steak",40,Dollar($),False,False,False,No,3,4.4,Green,Very Good,235,United States,low,1,american,"['american', 'seafood', 'steak']",4.4,0.021492591915127125,0.6224477775745382
16643459,consort restaurant,37,Consort,"4931 50th Street, Consort, AB T0C 1B0",consort,"consort, consort",-110.7746994,52.0082889,"chinese, canadian",25,Dollar($),False,False,False,No,2,3.0,Orange,Average,6,Canada,low,1,chinese,"['chinese', 'canadian']",3.0,0.000548747027620267,0.42016462410828603
17334434,thatcher's barbeque and grill,216,Dalton,"1214 N Wall St, Calhoun, GA 30701",calhoun,"calhoun, dalton",-84.9396931,34.5251331,"american, bbq, southern",25,Dollar($),False,False,False,No,2,3.7,Yellow,Good,38,United States,low,1,american,"['american', 'bbq', 'southern']",3.7,0.003475397841595025,0.5190426193524785
17334348,christian and jake's bistro,216,Dalton,"555 Georgia Hwy 53, Calhoun, GA 30701",calhoun,"calhoun, dalton",-84.926258,34.474635,"desserts, sandwich",10,Dollar($),False,False,False,No,1,4.4,Green,Very Good,122,United States,low,1,desserts,"['desserts', 'sandwich']",4.4,0.011157856228278763,0.6193473568684836
17334213,dub's high on the hog,216,Dalton,"349 S Wall St, Calhoun, GA 30701",calhoun,"calhoun, dalton",-84.9523921,34.4972488,bbq,25,Dollar($),False,False,False,No,2,4.4,Green,Very Good,207,United States,low,1,bbq,['bbq'],4.4,0.018931772452899214,0.6216795317358698
17334355,sierra's mexican restaurant,216,Dalton,"500 S. 3rd Avenue, Chatsworth, GA 30705",chatsworth,"chatsworth, dalton",-84.767911,34.752476,"mexican, tex-mex",10,Dollar($),False,False,False,No,1,3.9,Yellow,Good,66,United States,low,1,mexican,"['mexican', 'tex-mex']",3.9,0.006036217303822937,0.547810865191147
17334212,oakwood cafe,216,Dalton,"201 West Cuyler Street, Dalton, GA 30720",dalton,"dalton, dalton",-84.969393,34.769686,"bbq, breakfast, southern",10,Dollar($),False,False,False,No,1,4.9,Dark Green,Excellent,249,United States,low,1,bbq,"['bbq', 'breakfast', 'southern']",4.9,0.022773001646241083,0.6928319004938723
17333797,chili's grill & bar,216,Dalton,"881 College Dr, Dalton, GA 30720",dalton,"dalton, dalton",-85.0039,34.7643,american,25,Dollar($),False,False,False,No,2,3.8,Yellow,Good,63,United States,low,1,american,['american'],3.8,0.005761843790012804,0.5337285531370037
17334217,fuji japanese steakhouse,216,Dalton,"1321 W Walnut Ave, Dalton, GA 30720",dalton,"dalton, dalton",-84.992342,34.759551,"japanese, sushi",40,Dollar($),False,False,False,No,3,3.8,Yellow,Good,145,United States,low,1,japanese,"['japanese', 'sushi']",3.8,0.01326138650082312,0.5359784159502469
17334273,las palmas,216,Dalton,"1331 W Walnut Ave, Dalton, GA 30720",dalton,"dalton, dalton",-84.992924,34.759665,mexican,10,Dollar($),False,False,False,No,1,3.8,Yellow,Good,83,United States,low,1,mexican,['mexican'],3.8,0.0075910005487470275,0.534277300164624
17334254,tony's italian restaurant & pizza,216,Dalton,"933 Market St, Dalton, GA 30720",dalton,"dalton, dalton",-84.999678,34.758645,italian,25,Dollar($),False,False,False,No,2,3.7,Yellow,Good,116,United States,low,1,italian,['italian'],3.7,0.010609109200658497,0.5211827327601976
17333836,filling station,216,Dalton,"316 N Hamilton St, Dalton, GA 30720",dalton,"dalton, dalton",-84.9678,34.7742,"american, burger",10,Dollar($),False,False,False,No,1,4.1,Green,Very Good,122,United States,low,1,american,"['american', 'burger']",4.1,0.011157856228278763,0.5773473568684836
17334197,five guys burgers and fries,216,Dalton,"1303 W. Walnut Ave., Dalton, GA 30720",dalton,"dalton, dalton",-84.990925,34.759273,fast food,10,Dollar($),False,False,False,No,1,4.1,Green,Very Good,142,United States,low,1,fast food,['fast food'],4.1,0.012987012987012988,0.5778961038961038
17333882,los pablos,216,Dalton,"1513 W Walnut Ave Ste 6, Dalton, GA 30720",dalton,"dalton, dalton",-84.9964,34.7604,mexican,10,Dollar($),False,False,False,No,1,4.1,Green,Very Good,114,United States,low,1,mexican,['mexican'],4.1,0.010426193524785073,0.5771278580574355
17334211,kobe hibachi & sushi,216,Dalton,"2603 Battlefield Pkwy, Fort Oglethorpe, GA 30742",fort oglethorpe,"fort oglethorpe, dalton",-85.2229101,34.9428786,"american, japanese, sushi",25,Dollar($),False,False,False,No,2,4.6,Dark Green,Excellent,214,United States,low,1,american,"['american', 'japanese', 'sushi']",4.6,0.019571977318456193,0.6498715931955368
17334390,soho hibachi,216,Dalton,"1014 Battlefield Parkway, Fort Oglethorpe, GA 30742",fort oglethorpe,"fort oglethorpe, dalton",-85.246237,34.9528157,japanese,10,Dollar($),False,False,False,No,1,4.3,Green,Very Good,116,United States,low,1,japanese,['japanese'],4.3,0.010609109200658497,0.6051827327601975
17334034,thai garden,216,Dalton,"685 Battlefield Pkwy, Fort Oglethorpe, GA 30742",fort oglethorpe,"fort oglethorpe, dalton",-85.2545,34.9546,thai,25,Dollar($),False,False,False,No,2,4.2,Green,Very Good,111,United States,low,1,thai,['thai'],4.2,0.01015182001097494,0.5910455460032924
17334414,southern bliss bakery,216,Dalton,"300 W Patton St., Lafayette, GA 30728",lafayette,"lafayette, dalton",-85.294955,34.705093,"desserts, sandwich",10,Dollar($),False,False,False,No,1,3.7,Yellow,Good,25,United States,low,1,desserts,"['desserts', 'sandwich']",3.7,0.0022864459484177794,0.5186859337845253
17334082,bailey's bar-b-que,216,Dalton,"5540 Highway 41, Ringgold, GA 30736",ringgold,"ringgold, dalton",-85.1321,34.9273,bbq,10,Dollar($),False,False,False,No,1,4.1,Green,Very Good,128,United States,low,1,bbq,['bbq'],4.1,0.01170660325589903,0.5775119809767697
17334364,farm to fork,216,Dalton,"118 Remco Shops Lane, Ringgold, GA 30736",ringgold,"ringgold, dalton",-85.130492,34.912109,"american, diner, southern",10,Dollar($),False,False,False,No,1,4.3,Green,Very Good,244,United States,low,1,american,"['american', 'diner', 'southern']",4.3,0.022315712456557526,0.6086947137369673
17334398,home plate grill,216,Dalton,"7807 Nashville St, Ringgold, GA 30736",ringgold,"ringgold, dalton",-85.1079396,34.9151853,"american, bbq, southern",10,Dollar($),False,False,False,No,1,4.2,Green,Very Good,112,United States,low,1,american,"['american', 'bbq', 'southern']",4.2,0.010243277848911651,0.5910729833546735
17334219,pie slingers pizzeria,216,Dalton,"56A Fieldstone Village Drive, Rock Spring, GA 30739",rock spring,"rock spring, dalton",-85.249727,34.851907,"italian, pizza",10,Dollar($),False,False,False,No,1,4.1,Green,Very Good,144,United States,low,1,italian,"['italian', 'pizza']",4.1,0.01316992866288641,0.5779509785988659
17335173,olive tree cafe,216,Davenport,"2513 53rd Avenue, Bettendorf, IA 52722",bettendorf,"bettendorf, davenport",-90.496986,41.574935,"indian, mediterranean, middle eastern",25,Dollar($),False,False,False,No,2,4.6,Dark Green,Excellent,166,United States,low,1,indian,"['indian', 'mediterranean', 'middle eastern']",4.6,0.015182001097494055,0.6485546003292482
17335195,"red ginger sushi, grill & bar",216,Davenport,"793 Middle Rd, Bettendorf, IA 52722",bettendorf,"bettendorf, davenport",-90.522479,41.53845,"sushi, teriyaki",40,Dollar($),False,False,False,No,3,4.5,Dark Green,Excellent,208,United States,low,1,sushi,"['sushi', 'teriyaki']",4.5,0.019023230290835923,0.6357069690872508
17335225,crust stone oven pizza,216,Davenport,"2561 E 53rd Ave, Bettendorf, IA 52722",bettendorf,"bettendorf, davenport",-90.4912446,41.5747801,"burger, pizza",25,Dollar($),False,False,False,No,2,3.9,Yellow,Good,136,United States,low,1,burger,"['burger', 'pizza']",3.9,0.01243826595939272,0.5497314797878179
17335219,jimmy's pancake house,216,Davenport,"2521 - 18th St., Bettendorf, IA 52722",bettendorf,"bettendorf, davenport",-90.504176,41.548746,"american, breakfast, greek",10,Dollar($),False,False,False,No,1,4.0,Green,Very Good,85,United States,low,1,american,"['american', 'breakfast', 'greek']",4.0,0.00777391622462045,0.5623321748673861
17334965,trattoria tiramisu,216,Davenport,"1804 State St, Bettendorf, IA 52722",bettendorf,"bettendorf, davenport",-90.50709,41.525384,italian,25,Dollar($),False,False,False,No,2,4.1,Green,Very Good,117,United States,low,1,italian,['italian'],4.1,0.010700567038595208,0.5772101701115785
17335189,prairie grille at steeplegate inn,216,Davenport,"100 W 76th St, Davenport, IA 52806",davenport,"davenport, davenport",-90.574088,41.593892,"american, breakfast",25,Dollar($),False,False,False,No,2,3.4,Orange,Average,53,United States,low,1,american,"['american', 'breakfast']",3.4,0.004847265410645693,0.4774541796231937
17335156,tantra asian bistro,216,Davenport,"589 East 53rd St, Davenport, IA 52807",davenport,"davenport, davenport",-90.565837,41.574459,asian,25,Dollar($),False,False,False,No,2,4.9,Dark Green,Excellent,474,United States,low,1,asian,['asian'],4.9,0.043351015182001094,0.6990053045546004
17334717,chick-fil-a,216,Davenport,"320 W Kimberly Rd, Davenport, IA 52806",davenport,"davenport, davenport",-90.5716,41.5604,fast food,10,Dollar($),False,False,False,No,1,3.9,Yellow,Good,125,United States,low,1,fast food,['fast food'],3.9,0.011432229742088898,0.5494296689226267
17334752,duck city bistro,216,Davenport,"115 E 3rd St, Davenport, IA 52801",davenport,"davenport, davenport",-90.5737,41.5223,"american, french",70,Dollar($),False,False,False,No,4,3.7,Yellow,Good,201,United States,low,1,american,"['american', 'french']",3.7,0.018383025425278945,0.5235149076275837
18453427,frick's tap,216,Davenport,"1402 W 3rd Street, IA 52802",davenport,"davenport, davenport",-90.59466452,41.52253634,"american, bar food, bbq",25,Dollar($),False,False,False,No,2,0.0,White,Not rated,2,United States,low,1,american,"['american', 'bar food', 'bbq']",0.0,0.00018291567587342235,5.48747027620267e-05
17793744,los agaves,216,Davenport,"4882 Utica Ridge Rd, Davenport, IA 52807",davenport,"davenport, davenport",-90.5154313,41.5709434,mexican,25,Dollar($),False,False,False,No,2,0.0,White,Not rated,3,United States,low,1,mexican,['mexican'],0.0,0.0002743735138101335,8.231205414304005e-05
17334679,azteca,216,Davenport,"4811 N Brady St Ste 3, Davenport, IA 52806",davenport,"davenport, davenport",-90.5683,41.5699,mexican,0,Dollar($),False,False,False,No,1,4.3,Green,Very Good,167,United States,low,1,mexican,['mexican'],4.3,0.015273458935430766,0.6065820376806292
17334718,china cafe,216,Davenport,"3018 E 53rd St, Davenport, IA 52807",davenport,"davenport, davenport",-90.5321,41.5749,chinese,25,Dollar($),False,False,False,No,2,4.0,Green,Very Good,112,United States,low,1,chinese,['chinese'],4.0,0.010243277848911651,0.5630729833546735
17334763,exotic thai restaurant,216,Davenport,"2303 E 53rd St, Davenport, IA 52807",davenport,"davenport, davenport",-90.5432,41.5747,thai,25,Dollar($),False,False,False,No,2,4.1,Green,Very Good,256,United States,low,1,thai,['thai'],4.1,0.02341320651179806,0.5810239619535393
17335158,front street brewery,216,Davenport,"208 E River Dr, Davenport, IA 52801",davenport,"davenport, davenport",-90.572418,41.520389,american,10,Dollar($),False,False,False,No,1,4.3,Green,Very Good,123,United States,low,1,american,['american'],4.3,0.011249314066215474,0.6053747942198646
17334782,granite city food & brewery,216,Davenport,"5270 Utica Ridge Rd, Davenport, IA 52807",davenport,"davenport, davenport",-90.5137,41.5745,american,25,Dollar($),False,False,False,No,2,4.0,Green,Very Good,199,United States,low,1,american,['american'],4.0,0.018200109749405523,0.5654600329248216
17334846,los agaves,216,Davenport,"3852 N Brady St, Davenport, IA 52806",davenport,"davenport, davenport",-90.5686,41.559,mexican,25,Dollar($),False,False,False,No,2,4.1,Green,Very Good,157,United States,low,1,mexican,['mexican'],4.1,0.014358880556063654,0.578307664166819
17334853,machine shed restaurant,216,Davenport,"7250 Northwest Blvd, Davenport, IA 52806",davenport,"davenport, davenport",-90.6136,41.5944,american,25,Dollar($),False,False,False,No,2,4.1,Green,Very Good,100,United States,low,1,american,['american'],4.1,0.009145783793671118,0.5767437351381013
17335168,osaka,216,Davenport,"4901 Utica Ridge Rd, Davenport, IA 52807",davenport,"davenport, davenport",-90.515175,41.570997,"japanese, sushi",40,Dollar($),False,False,False,No,3,4.2,Green,Very Good,141,United States,low,1,japanese,"['japanese', 'sushi']",4.2,0.012895555149076275,0.5918686665447228
17334958,texas roadhouse,216,Davenport,"4005 E 53rd Street, Davenport, IA 52807",davenport,"davenport, davenport",-90.517,41.5747,"american, bbq, steak",25,Dollar($),False,False,False,No,2,4.2,Green,Very Good,197,United States,low,1,american,"['american', 'bbq', 'steak']",4.2,0.0180171940735321,0.5934051582220596
17258496,hickory park,216,Des Moines,"1404 S Duff Ave, Ames, IA 50010",ames,"ames, des moines",-93.610084,42.010254,"bbq, burger, desserts",25,Dollar($),False,False,False,No,2,4.5,Dark Green,Excellent,1025,United States,low,1,bbq,"['bbq', 'burger', 'desserts']",4.5,0.09374428388512895,0.6581232851655386
17259395,the cafe,216,Des Moines,"2616 Northridge Pkwy, Ames, IA 50010",ames,"ames, des moines",-93.643094,42.048779,"american, coffee and tea",25,Dollar($),False,False,False,No,2,4.9,Dark Green,Excellent,570,United States,low,1,american,"['american', 'coffee and tea']",4.9,0.05213096762392537,0.7016392902871776
17258350,flying mango,216,Des Moines,"4345 Hickman Rd, Des Moines, IA 50310",beaverdale,"beaverdale, des moines",-93.677638,41.614965,"bbq, caribbean, cajun",40,Dollar($),False,False,False,No,3,4.5,Dark Green,Excellent,674,United States,low,1,bbq,"['bbq', 'caribbean', 'cajun']",4.5,0.06164258276934333,0.648492774830803
17258136,cool basil,216,Des Moines,"8801 University Ave, Clive, IA 50325",clive,"clive, des moines",-93.739573,41.600564,"asian, sushi, thai",25,Dollar($),False,False,False,No,2,4.1,Green,Very Good,496,United States,low,1,asian,"['asian', 'sushi', 'thai']",4.1,0.04536308761660875,0.5876089262849826
17258522,huhot mongolian grill,216,Des Moines,"4100 University Avenue, West Des Moines, IA 50266",clive,"clive, des moines",-93.760027,41.60028,"asian, chinese",25,Dollar($),False,False,False,No,2,4.0,Green,Very Good,411,United States,low,1,asian,"['asian', 'chinese']",4.0,0.037589171391988294,0.5712767514175965
17259958,malo,216,Des Moines,"900 Mulberry Street, Des Moines, IA 50309",downtown,"downtown, des moines",-93.627896,41.583309,"latin american, mexican",25,Dollar($),False,False,False,No,2,3.2,Orange,Average,113,United States,low,1,latin american,"['latin american', 'mexican']",3.2,0.010334735686848362,0.45110042070605444
17258036,centro,216,Des Moines,"1007 Locust St, Des Moines, IA 50309",downtown,"downtown, des moines",-93.6300803,41.5857431,"italian, pizza",40,Dollar($),False,False,False,No,3,4.5,Dark Green,Excellent,1109,United States,low,1,italian,"['italian', 'pizza']",4.5,0.1014267422718127,0.6604280226815438
17259368,fong's pizza,216,Des Moines,"223 4th Street, Des Moines, IA 50309",downtown,"downtown, des moines",-93.621631,41.585465,"chinese, pizza",25,Dollar($),False,False,False,No,2,4.6,Dark Green,Excellent,728,United States,low,1,chinese,"['chinese', 'pizza']",4.6,0.06658130601792574,0.6639743918053777
17257684,a dong restaurant,216,Des Moines,"1511 High Street, Des Moines, IA 50309",downtown,"downtown, des moines",-93.637401,41.587219,"asian, vegetarian, vietnamese, bubble tea",10,Dollar($),False,False,False,No,1,4.4,Green,Very Good,659,United States,low,1,asian,"['asian', 'vegetarian', 'vietnamese', 'bubble tea']",4.4,0.06027071520029267,0.6340812145600878
17258154,court avenue brewing company,216,Des Moines,"309 Court Ave, Des Moines, IA 50309",downtown,"downtown, des moines",-93.620726,41.58536,"american, pizza, bar food",40,Dollar($),False,False,False,No,3,4.2,Green,Very Good,370,United States,low,1,american,"['american', 'pizza', 'bar food']",4.2,0.03383940003658314,0.5981518200109749
17259340,django,216,Des Moines,"210 10th Street, Des Moines, IA 50309",downtown,"downtown, des moines",-93.629436,41.584027,french,40,Dollar($),False,False,False,No,3,4.3,Green,Very Good,532,United States,low,1,french,['french'],4.3,0.04865556978233035,0.616596670934699
17259243,miyabi 9,216,Des Moines,"512 E Grand Ave, Des Moines, IA 50309",east village,"east village, des moines",-93.611366,41.590819,"japanese, sushi",25,Dollar($),False,False,False,No,2,4.8,Dark Green,Excellent,860,United States,low,1,japanese,"['japanese', 'sushi']",4.8,0.07865374062557161,0.6955961221876714
17259625,zombie burger + drink lab,216,Des Moines,"300 E. Grand Ave., Des Moines, IA 50309",east village,"east village, des moines",-93.61474,41.590106,"burger, desserts, vegetarian",10,Dollar($),False,False,False,No,1,4.2,Green,Very Good,943,United States,low,1,burger,"['burger', 'desserts', 'vegetarian']",4.2,0.08624474117431864,0.6138734223522956
17259169,tursi's latin king,216,Des Moines,"2200 Hubbell Ave, Des Moines, IA 50317",fairground,"fairground, des moines",-93.577383,41.601415,"american, italian",70,Dollar($),False,False,False,No,4,4.1,Green,Very Good,476,United States,low,1,american,"['american', 'italian']",4.1,0.04353393085787452,0.5870601792573623
17259166,tsing tsao south,216,Des Moines,"4230 Fleur Dr, Des Moines, IA 50321",greater south side,"greater south side, des moines",-93.645245,41.545869,chinese,10,Dollar($),False,False,False,No,1,4.1,Green,Very Good,218,United States,low,1,chinese,['chinese'],4.1,0.019937808670203037,0.5799813426010608
17259335,bandit burrito,216,Des Moines,"5340 Merle Hay Road, Johnston, IA 50131",johnston,"johnston, des moines",-93.6976773,41.6714654,"breakfast, mexican, southwestern",10,Dollar($),False,False,False,No,1,4.0,Green,Very Good,214,United States,low,1,breakfast,"['breakfast', 'mexican', 'southwestern']",4.0,0.019571977318456193,0.5658715931955368
17259248,jethro's bbq,216,Des Moines,"3100 Forest Ave, Des Moines, IA 50311",kingman place historic district,"kingman place historic district, des moines",-93.659797,41.603901,"american, bbq",25,Dollar($),False,False,False,No,2,4.3,Green,Very Good,699,United States,low,1,american,"['american', 'bbq']",4.3,0.06392902871776111,0.6211787086153283
17258552,the machine shed restaurant,216,Des Moines,"11151 Hickman Road, Urbandale, IA 50322",urbandale,"urbandale, des moines",-93.772033,41.615083,"american, breakfast",25,Dollar($),False,False,False,No,2,3.8,Yellow,Good,308,United States,low,1,american,"['american', 'breakfast']",3.8,0.028169014084507043,0.540450704225352
17259550,mi patria,216,Des Moines,"1410 22nd St., West Des Moines, IA 50266",west des moines,"west des moines, des moines",-93.73624,41.594039,latin american,25,Dollar($),False,False,False,No,2,4.0,Green,Very Good,157,United States,low,1,latin american,['latin american'],4.0,0.014358880556063654,0.564307664166819
17259200,waterfront seafood market,216,Des Moines,"2900 University Ave, West Des Moines, IA 50266",west des moines,"west des moines, des moines",-93.7441981,41.5991771,"seafood, sushi",40,Dollar($),False,False,False,No,3,4.2,Green,Very Good,530,United States,low,1,seafood,"['seafood', 'sushi']",4.2,0.048472654106456924,0.602541796231937
16615894,the giggling goat,14,Dicky Beach,"14 Beerburrum St, Dicky Beach, QLD",dicky beach,"dicky beach, dicky beach",153.137401,-26.783576,"coffee and tea, tea, modern australian",7,Dollar($),False,False,False,No,1,3.6,Yellow,Good,29,Australia,low,1,coffee and tea,"['coffee and tea', 'tea', 'modern australian']",3.6,0.0026522773001646243,0.5047956831900494
17342816,burnt toast cafe,216,Dubuque,"1220 Iowa St, Dubuque, IA 52001",dubuque,"dubuque, dubuque",-90.667668,42.504759,breakfast,10,Dollar($),False,False,False,No,1,3.4,Orange,Average,33,United States,low,1,breakfast,['breakfast'],3.4,0.0030181086519114686,0.47690543259557344
17342498,catfish charlie's,216,Dubuque,"1630 E 16th St, Dubuque, IA 52001",dubuque,"dubuque, dubuque",-90.6499328,42.5124724,seafood,25,Dollar($),False,False,False,No,2,3.3,Orange,Average,40,United States,low,1,seafood,['seafood'],3.3,0.003658313517468447,0.4630974940552404
17342648,salsa's mexican restaurant,216,Dubuque,"1091 Main St, Dubuque, IA 52001",dubuque,"dubuque, dubuque",-90.6684746,42.5032004,mexican,10,Dollar($),False,False,False,No,1,3.4,Orange,Average,153,United States,low,1,mexican,['mexican'],3.4,0.01399304920431681,0.48019791476129503
17342781,tony roma's,216,Dubuque,"350 Bell St, Dubuque, IA 52001",dubuque,"dubuque, dubuque",-90.658609,42.496464,"american, bbq, seafood",25,Dollar($),False,False,False,No,2,3.3,Orange,Average,65,United States,low,1,american,"['american', 'bbq', 'seafood']",3.3,0.005944759465886226,0.4637834278397658
17342799,vinny vanucchi's,216,Dubuque,"180 Main Street, Dubuque, IA 52001",dubuque,"dubuque, dubuque",-90.664029,42.495689,italian,25,Dollar($),False,False,False,No,2,3.4,Orange,Average,58,United States,low,1,italian,['italian'],3.4,0.0053045546003292485,0.47759136638009875
17342772,champps americana,216,Dubuque,"3100 Dodge St., Dubuque, IA 52003",dubuque,"dubuque, dubuque",-90.715247,42.492018,"american, burger, sandwich",25,Dollar($),False,False,False,No,2,3.5,Yellow,Good,100,United States,low,1,american,"['american', 'burger', 'sandwich']",3.5,0.009145783793671118,0.49274373513810127
17342771,fiesta cancun,216,Dubuque,"2515 NW Arterial, Dubuque, IA 52002",dubuque,"dubuque, dubuque",-90.740213,42.49092,mexican,10,Dollar($),False,False,False,No,1,3.6,Yellow,Good,156,United States,low,1,mexican,['mexican'],3.6,0.014267422718126943,0.508280226815438
17342548,happy joe's pizza & ice cream,216,Dubuque,"855 Century Dr, Dubuque, IA 52002",dubuque,"dubuque, dubuque",-90.7264,42.4955,"desserts, pizza, ice cream",0,Dollar($),False,False,False,No,1,3.5,Yellow,Good,74,United States,low,1,desserts,"['desserts', 'pizza', 'ice cream']",3.5,0.006767880007316627,0.4920303640021949
17342556,houlihan's,216,Dubuque,"1795 Greyhound Park Rd, Dubuque, IA 52001",dubuque,"dubuque, dubuque",-90.645294,42.516621,"american, burger",25,Dollar($),False,False,False,No,2,3.6,Yellow,Good,117,United States,low,1,american,"['american', 'burger']",3.6,0.010700567038595208,0.5072101701115785
17342811,ichiban hibachi steakhouse & sushi bar,216,Dubuque,"3187 University Ave, Dubuque, IA 52001",dubuque,"dubuque, dubuque",-90.712084,42.492963,"japanese, steak, sushi",40,Dollar($),False,False,False,No,3,3.7,Yellow,Good,83,United States,low,1,japanese,"['japanese', 'steak', 'sushi']",3.7,0.0075910005487470275,0.5202773001646241
17342576,kalmes breaktime bar & grill,216,Dubuque,"1097 Jackson St, Dubuque, IA 52001",dubuque,"dubuque, dubuque",-90.6646,42.5043,"american, burger",25,Dollar($),False,False,False,No,2,3.6,Yellow,Good,48,United States,low,1,american,"['american', 'burger']",3.6,0.004389976220962136,0.5053169928662886
17342770,l. may eatery,216,Dubuque,"1072 Main St, Dubuque, IA 52001",dubuque,"dubuque, dubuque",-90.668164,42.503075,"international, pizza",40,Dollar($),False,False,False,No,3,3.8,Yellow,Good,198,United States,low,1,international,"['international', 'pizza']",3.8,0.018108651911468814,0.5374325955734406
17342585,los aztecas,216,Dubuque,"2700 Dodge St, Dubuque, IA 52003",dubuque,"dubuque, dubuque",-90.7055,42.4916,mexican,10,Dollar($),False,False,False,No,1,3.5,Yellow,Good,126,United States,low,1,mexican,['mexican'],3.5,0.011523687580025609,0.49345710627400763
17342494,manna java world cafe,216,Dubuque,"700 Locust St, Dubuque, IA 52001",dubuque,"dubuque, dubuque",-90.6677349,42.500191,"breakfast, pizza",10,Dollar($),False,False,False,No,1,3.5,Yellow,Good,119,United States,low,1,breakfast,"['breakfast', 'pizza']",3.5,0.01088348271446863,0.4932650448143405
17342594,mario's italian restaurant,216,Dubuque,"1298 Main St, Dubuque, IA 52001",dubuque,"dubuque, dubuque",-90.6691,42.5048,"american, italian",25,Dollar($),False,False,False,No,2,3.6,Yellow,Good,140,United States,low,1,american,"['american', 'italian']",3.6,0.012804097311139564,0.5078412291933418
17342625,pepper sprout incorporated,216,Dubuque,"378 Main St, Dubuque, IA 52001",dubuque,"dubuque, dubuque",-90.6651,42.4974,american,40,Dollar($),False,False,False,No,3,3.6,Yellow,Good,159,United States,low,1,american,['american'],3.6,0.014541796231937076,0.5083625388695812
17342652,shot tower inn,216,Dubuque,"290 Locust St, Dubuque, IA 52001",dubuque,"dubuque, dubuque",-90.6658,42.4963,"italian, pizza",25,Dollar($),False,False,False,No,2,3.6,Yellow,Good,131,United States,low,1,italian,"['italian', 'pizza']",3.6,0.011980976769709164,0.5075942930309127
17342665,sunshine family restaurant,216,Dubuque,"401 Central Ave, Dubuque, IA 52001",dubuque,"dubuque, dubuque",-90.663686,42.4982789,"american, breakfast, burger",10,Dollar($),False,False,False,No,1,3.5,Yellow,Good,60,United States,low,1,american,"['american', 'breakfast', 'burger']",3.5,0.0054874702762026705,0.49164624108286076
17342810,watershed cafe,216,Dubuque,"51 W 32nd Street, Dubuque, IA 52001",dubuque,"dubuque, dubuque",-90.684882,42.527556,"american, burger, pizza, cafe",25,Dollar($),False,False,False,No,2,3.7,Yellow,Good,89,United States,low,1,american,"['american', 'burger', 'pizza', 'cafe']",3.7,0.008139747576367295,0.5204419242729103
17342775,woodfire grille,216,Dubuque,"301 Bell Street, Dubuque, IA 52001",dubuque,"dubuque, dubuque",-90.658988,42.496378,"american, seafood, steak",70,Dollar($),False,False,False,No,4,3.6,Yellow,Good,72,United States,low,1,american,"['american', 'seafood', 'steak']",3.6,0.006584964331443205,0.5059754892994329
16612028,the belle general,14,East Ballina,"12 Shelly Beach Rd, East Ballina, NSW",east ballina,"east ballina, east ballina",153.593331,-28.862663,cafe,20,Dollar($),False,False,False,No,2,4.1,Green,Very Good,56,Australia,low,1,cafe,['cafe'],4.1,0.005121638924455826,0.5755364916773367
17536645,jehova es mi pastor tacos y burritos,216,Fernley,"135 W. Main Street, Fernley, NV 89408",fernley,"fernley, fernley",-119.252694,39.607515,mexican,10,Dollar($),False,False,False,No,1,3.7,Yellow,Good,83,United States,low,1,mexican,['mexican'],3.7,0.0075910005487470275,0.5202773001646241
16613507,flaxton gardens,14,Flaxton,"313 Flaxton Drive, Flaxton, QLD",flaxton,"flaxton, flaxton",152.8771473,-26.6521332,"tea, modern australian",30,Dollar($),False,False,False,No,3,3.5,Yellow,Good,37,Australia,low,1,tea,"['tea', 'modern australian']",3.5,0.0033839400036583134,0.49101518200109745
16607969,bespoke harvest,14,Forrest,"16 Grant St, Forrest, VIC",forrest,"forrest, forrest",143.714315,-38.517292,"cafe, australian",20,Dollar($),False,False,False,No,2,3.7,Yellow,Good,29,Australia,low,1,cafe,"['cafe', 'australian']",3.7,0.0026522773001646243,0.5187956831900494
17374405,houndstooth grill & tavern,216,Gainesville,"6323 Grand Hickory Dr Ste 200A, Braselton, GA 30517",braselton,"braselton, gainesville",-83.8461,34.0901,"american, sandwich, seafood",25,Dollar($),False,False,False,No,2,4.4,Green,Very Good,239,United States,low,1,american,"['american', 'sandwich', 'seafood']",4.4,0.021858423266873973,0.6225575269800622
17375060,hawg wild bbq & catfish house,216,Gainesville,"515 Grant Street, Clarkesville, GA 30523",clarkesville,"clarkesville, gainesville",-83.520693,34.61802,"bbq, burger, seafood",10,Dollar($),False,False,False,No,1,4.1,Green,Very Good,235,United States,low,1,bbq,"['bbq', 'burger', 'seafood']",4.1,0.021492591915127125,0.5804477775745381
17375164,bourbon street grille,216,Gainesville,"90 Public Sq N, Dahlonega, GA 30533",dahlonega,"dahlonega, gainesville",-83.985353,34.532973,"american, burger, cajun",25,Dollar($),False,False,False,No,2,3.8,Yellow,Good,88,United States,low,1,american,"['american', 'burger', 'cajun']",3.8,0.008048289738430584,0.534414486921529
17374552,corkscrew cafe,216,Gainesville,"51 W Main St, Dahlonega, GA 30533",dahlonega,"dahlonega, gainesville",-83.9858,34.5318,not specified,40,Dollar($),False,False,False,No,3,3.9,Yellow,Good,209,United States,low,1,not specified,['not specified'],3.9,0.019114688128772636,0.5517344064386318
17375078,smokin gold bbq,216,Gainesville,"59 E Main St, Dahlonega, GA 30533",dahlonega,"dahlonega, gainesville",-83.983939,34.533626,bbq,10,Dollar($),False,False,False,No,1,3.9,Yellow,Good,133,United States,low,1,bbq,['bbq'],3.9,0.012163892445582587,0.5496491677336748
17375049,hoka-hoka japanese steak & sushi,216,Gainesville,"617 North Grove Street, Dahlonega, GA 30533",dahlonega,"dahlonega, gainesville",-83.989317,34.541044,"chinese, japanese, thai",10,Dollar($),False,False,False,No,1,4.4,Green,Very Good,267,United States,low,1,chinese,"['chinese', 'japanese', 'thai']",4.4,0.024419242729101884,0.6233257728187306
17375077,shenanigan's irish pub,216,Gainesville,"87 N. Chestatee St., Dahlonega, GA 30533",dahlonega,"dahlonega, gainesville",-83.986119,34.533198,"bar food, seafood, vegetarian",25,Dollar($),False,False,False,No,2,4.1,Green,Very Good,171,United States,low,1,bar food,"['bar food', 'seafood', 'vegetarian']",4.1,0.01563929028717761,0.5786917870861532
17375141,fish tales lakeside grille,216,Gainesville,"6330 Mitchell Street, Flowery Branch, GA 30542",flowery branch,"flowery branch, gainesville",-83.938024,34.183573,seafood,25,Dollar($),False,False,False,No,2,3.8,Yellow,Good,107,United States,low,1,seafood,['seafood'],3.8,0.009785988659228096,0.5349357965977684
17375198,antebellum,216,Gainesville,"5510 Church Street, Flowery Branch, GA 30542",flowery branch,"flowery branch, gainesville",-83.926217,34.185707,"american, southern",40,Dollar($),False,False,False,No,3,4.3,Green,Very Good,164,United States,low,1,american,"['american', 'southern']",4.3,0.014999085421620633,0.6064997256264861
17375180,moonie's texas barbecue,216,Gainesville,"5545 Atlanta Highway, Flowery Branch, GA 30542",flowery branch,"flowery branch, gainesville",-83.927794,34.180043,"bbq, sandwich",10,Dollar($),False,False,False,No,1,4.1,Green,Very Good,182,United States,low,1,bbq,"['bbq', 'sandwich']",4.1,0.016645326504481434,0.5789935979513444
17375072,atlanta highway seafood market,216,Gainesville,"227 Atlanta Highway Suite 900, Gainesville, GA 30501",gainesville,"gainesville, gainesville",-83.838457,34.285102,"sandwich, seafood, cajun",25,Dollar($),False,False,False,No,2,4.9,Dark Green,Excellent,681,United States,low,1,sandwich,"['sandwich', 'seafood', 'cajun']",4.9,0.06228278763490031,0.7046848362904702
17375047,eat at thai,216,Gainesville,"975 Dawsonville Hwy, Gainesville, GA 30501",gainesville,"gainesville, gainesville",-83.857993,34.300182,thai,10,Dollar($),False,False,False,No,1,4.6,Dark Green,Excellent,357,United States,low,1,thai,['thai'],4.6,0.03265044814340589,0.6537951344430216
17375074,smoke house bbq and catering,216,Gainesville,"3205 Atlanta Hwy, Atlanta Highway, Gainesville, GA, Gainesville, GA 30507",gainesville,"gainesville, gainesville",-83.860098,34.222755,bbq,25,Dollar($),False,False,False,No,2,3.8,Yellow,Good,89,United States,low,1,bbq,['bbq'],3.8,0.008139747576367295,0.5344419242729102
17374921,2 dog,216,Gainesville,"317 Spring St SE, Gainesville, GA 30501",gainesville,"gainesville, gainesville",-83.824023,34.300567,"american, european, sandwich",25,Dollar($),False,False,False,No,2,4.2,Green,Very Good,350,United States,low,1,american,"['american', 'european', 'sandwich']",4.2,0.03201024327784891,0.5976030729833547
17374819,longstreet cafe,216,Gainesville,"1043 Riverside Terrace, Gainesville, GA 30501",gainesville,"gainesville, gainesville",-83.8272,34.3166,southern,10,Dollar($),False,False,False,No,1,4.3,Green,Very Good,298,United States,low,1,southern,['southern'],4.3,0.02725443570513993,0.610176330711542
17375089,re-cess,216,Gainesville,"118 Bradford St NE, Gainesville, GA 30501",gainesville,"gainesville, gainesville",-83.82686,34.300332,"american, southern",25,Dollar($),False,False,False,No,2,4.2,Green,Very Good,319,United States,low,1,american,"['american', 'southern']",4.2,0.029175050301810865,0.5967525150905433
